"$GPRMC,898468.459,V,5890.0,N,2958.890843,E,,091.8,835845M&o5*77"
"$GPRMC,949984.99,V,7882.859,N,379887.5,W,2.0,9821.99,4581084*B2"
"$GPRMC,980940.8895,A,9136.08998,S,0605.88,E,,87.3,999985\a*50"
"$GPRMC,868086.9,A,971.1,S,34888216909.0,E,8.58,,881160O*F7"
"$GPRMC,126246.7950,A,839919.88,S,859.923,W,7.0589838,,989881\r*f9"
"$GPRMC,387818.18,V,9288.958,S,88488667808.9,W,,2.8,018984*38"
"$GPRMC,485508.99,A,89409.985397857,S,95868.71289,W,9.842,,922713,*a3"
"$GPRMC,889917.9,V,975.35,S,893.0,E,183.8,,938399Tk*8b"
"$GPRMC,518883.09,V,899.7,N,988.35,W,96478.1,87.42,9619887*d9"
"$GPRMC,399689.1,A,998.8,N,843698.82,E,,,688839s*3F"
"$GPRMC,093889.9,V,15598.0,N,24181499.582,W,,,519749J*74"
"$GPRMC,992859.5,V,298.296,N,878.95,W,,4896802.9,8898791`*F9"
"$GPRMC,919291.8987,A,979.9,S,929.19,W,,9.9,999266<*eA"
"$GPRMC,528835.882,V,8282.9598,S,999.987,W,69.885,,382125&~*c9"
"$GPRMC,258879.499984,V,495086.8,N,340.2,E,,,963081g*Df"
"$GPRMC,822981.9,V,3980495.9,N,538.9,W,9.859,26164.7,951867As:*6E"
"$GPRMC,979209.89,V,15998881.86,N,9582.5,E,7.6,9.2,999012~*98"
"$GPRMC,747198.8,V,588.489,S,898.79,W,,,985892.c*Bb"
"$GPRMC,970939.8,V,887.9,N,980.7,E,4.899,,347988\v*E3"
"$GPRMC,968964.1,A,883.9,S,1178.6,E,,,389399$*3A"
"$GPRMC,879708.04,V,988624.8,N,969.3,W,,,791817&*3F"
"$GPRMC,283215.4,V,69828.2,S,9978.982983,E,,,485042y[l'}S*Be"
"$GPRMC,899886.6,V,919.298,S,9978.6,W,8.9,,538969`*1a"
"$GPRMC,171884.79,V,691.59,N,93412.6,E,2.9,889.9,749997L*6F"
"$GPRMC,995109.70,V,108899.9,N,659.08,E,,981.83,963468a*98"
"$GPRMC,496948.159,V,889.720,N,2332.878,W,7.48,,396378cw*79"
"$GPRMC,399789.99,V,933768.88,S,933.5,W,,368.8,799708O*97"
"$GPRMC,989980.6,A,39954741.22,N,5184.19,W,,,999995*82"
"$GPRMC,866898.3,V,889.8,N,389.30,W,,31.998,982202/*8F"
"$GPRMC,232956.4,V,081.6,S,950.9,W,259.64,,386949S*fA"
"$GPRMC,921590.5,V,89998.3,S,9978788392.0,E,8.79,9399.3,193911#*a6"
"$GPRMC,989038.3,V,8699.8,N,183.93,E,169.3,,369907_*04"
"$GPRMC,997998.85,A,089807.77,S,338.142,E,9.8,333.8,399779e*85"
"$GPRMC,798925.9,V,844.0,N,8899188.80,W,,,788973m*FE"
"$GPRMC,803089.8,A,977.827,N,606.87,E,,,952749\n^+*Ca"
"$GPRMC,391889.3,V,9881.6,N,908793.6,W,89.980,,338517f*99"
"$GPRMC,928029.99,A,933.3,N,998.163,E,,8.18,957899`*fC"
"$GPRMC,637869.5,A,1956.999988324589,N,998037.3,W,33.5,8.698,849859U*4b"
"$GPRMC,888208.8,A,81950.08,S,649980889.989999,W,,,688459I*cD"
"$GPRMC,917962.96,V,884.8,S,697.528,E,5.39894,,606986{b*3f"
"$GPRMC,888611.31,V,9858.8,N,474.89650998,W,2.9,,601898]*B8"
"$GPRMC,889985.9,A,2699828.4,S,738.8,E,9.98,9.8,529698[*9a"
"$GPRMC,385083.929,A,78938.399,S,129391.9,E,3.28755789,9.88,9968930<*aC"
"$GPRMC,339082.40,V,8279.9,S,894263849.1,E,8.848,,918889(*39"
"$GPRMC,978298.983,V,486.6,N,04993.9,W,,9.9909,894693x\0OB*4E"
"$GPRMC,686909.984,V,68989.1,S,984.94,W,,,982739l*1f"
"$GPRMC,889247.84,A,598.09,S,927.6,E,2.8928,,876198+*DF"
"$GPRMC,490991.947,A,893.9,S,936.89,E,,1.9,805789J\"^|*88"
"$GPRMC,907846.088,V,936.84184,N,797.3,W,,,175505g<.8*f9"
"$GPRMC,798928.09,A,9869998.6,S,943.8,E,,28.9,997069\t*A8"
"$GPRMC,191769.2,A,91606.3,S,99799.9210,W,8.41,,017099q2*3f"
"$GPRMC,298984.899,A,693.8,S,949.9873,E,395.57,,969985`*53"
"$GPRMC,879694.88,A,959.78,N,19888.99,E,7252.8,,089485*9F"
"$GPRMC,932895.9,A,267.8,S,292.8225,E,,,7368525y;*A9"
"$GPRMC,848199.1,A,8948.48,N,684890.9,W,,89.74,998301^*d9"
"$GPRMC,783355.2,V,379986.480,S,809.886908088,W,,42.59,207929>*1b"
"$GPRMC,889899.8,A,28192536.339,N,999.88,W,,,839919-k'\t*2c"
"$GPRMC,817989.96,A,255.90908,S,108961.5,E,9.6,,939934&*fa"
"$GPRMC,590898.70,V,8999.3,S,859.9,W,0.4,9.297,109599(9*A7"
"$GPRMC,319698.8,V,008.8,S,4656.29,E,7.991,,273976\0;^*8C"
"$GPRMC,899069.88,V,4997.3,S,914.994,E,,,088540AL*9d"
"$GPRMC,998543.80484879,A,919899.9,S,987.8,E,8.8,2.5,879888>*8A"
"$GPRMC,848921.8,V,9360.914,N,396.38,E,,0.9,798086D*5C"
"$GPRMC,578661.7,V,0949.2,N,882.39,W,9.39,,248929EhdZ*98"
"$GPRMC,889981.9971,V,986.98409,N,97988.59,W,91.091095,5.9135,578088O*3e"
"$GPRMC,928449.2,V,286.88,S,219.9,W,90.92,3088.9,998976R*ba"
"$GPRMC,732195.898,A,484.2,N,995.93236,E,499.47,29.0,088999+*e9"
"$GPRMC,598203.1,V,879.59,S,911.8,E,,4.269,884614.0*99"
"$GPRMC,237882.3072,A,894.8,N,489998.92039,E,,8.1,696890*d1"
"$GPRMC,994887.098,V,416.7,S,848.9,E,3.98188,9.7,368759\b*9A"
