"\"imei:99&rmc:$GPRMC,40189909674,V,989.8,S,7598.998,W,1.9888,,985898,H"
"imei:391rmc:$GPRMC,154889e1,A,8429.9,S,937.30,W,8.29,,909286,t\tv{"
"V^imei=58&rmc=$GPRMC,579288u8,A,2186.69,S,156.59,W,9.98,,996788,_"
"imei=9rmc=$GPRMC,947905+8,V,82339.99,N,892.9992,W,3.8,949.6886,891849,"
"imei=89rmc=$GPRMC,0539186,V,86078.4,N,2889.878,W,98.7,,818568,"
"imei:8&rmc=$GPRMC,892394J2,V,6088.9,N,90769.79,E,1.1,73.8,399156,p"
"imei=1398&rmc=$GPRMC,258934p99,A,910.7,S,98092.829892818,E,19.98,89.979,899938,9"
"imei:3rmc=$GPRMC,29478306,V,099.887,S,99145.88888,E,8.2,0.4,399348,"
"imei:188&rmc:$GPRMC,495133>8,V,936.9,N,948.8,W,1.86,,588807,X"
"imei=280&rmc=$GPRMC,990983(8,A,343.482,N,997.17,W,48.9,,899387,"
"imei=8&rmc:$GPRMC,89949899,V,299.8399,N,8990433.58,E,2.1,,804699,"
"imei:5rmc:$GPRMC,988832<38,V,3429.06,N,4199388.7,W,5.4,,804909,'q3b="
"gimei=35&rmc:$GPRMC,946880|72562,A,1821.3,N,929.80,W,1.7,,349196,"
"imei=9707936&rmc:$GPRMC,8948483180383,A,809888.95,N,7903919.9596,E,79.78,,199959,|e"
"imei:9&rmc:$GPRMC,851829\v2,A,884986.8,N,980.9,W,9.98,9.1,722983,."
"4Eimei:926943881289rmc:$GPRMC,497989Q9,A,4689.8,N,673.43,E,8.88,29.8,891889,gP"
"imei:9&rmc=$GPRMC,82580888,A,4979.529,S,908859.9,E,8.489,98.882,988979,;8~hhtw"
"imei=2rmc=$GPRMC,218786v8,V,688659.93,S,185.9,W,3.9,,287278,"
"'imei:7&rmc:$GPRMC,83878488,V,9994949.9,N,2995.0,E,499.9,9.4,275709,"
"zH'imei:07&rmc:$GPRMC,858944U9,V,934279199991.8987,N,88978.5,W,9.929,9.8,809980,"
"4imei:6rmc=$GPRMC,329998|6,V,3618.87,S,428.84,E,48.9,,298892,"
"Wmimei:93rmc=$GPRMC,608891'921,V,341.2958,S,87991.84538,E,2.8,8539.4586,789988,"
"\bimei=9978&rmc:$GPRMC,328198#6826,A,888989.71,S,13171.80,W,408.8,0.8,489070,"
"\00imei:12720rmc:$GPRMC,901183+51,A,2982.4,S,2351.01,E,45.892,9.9,972277,v"
"zimei:4&rmc=$GPRMC,61810828876,A,9124.75,N,1189.8195,E,1729.92,90.728,910058,"
"imei:972&rmc=$GPRMC,888350Z8,A,8289.18,N,699.6992,W,47588.8,69.8,579982,"
">)imei=9&rmc:$GPRMC,195012\f8,A,293.958,S,699.9,W,8.8,,899898,,"
"imei=9&rmc:$GPRMC,289089z49,V,989.10,S,087.9,E,78.82,8.0919,888167,):"
"imei=68rmc:$GPRMC,64985469,A,9898.09,S,538.69802,E,88.08,,596985,1"
"imei:997rmc=$GPRMC,619816=2,V,7897.9,S,536.0,E,7.49,3093999.88,929807,VX"
"Di\imei:587&rmc:$GPRMC,898194l8,V,47902.3,N,9699.9998,W,9160.7,,907052,"
"imei:98rmc:$GPRMC,91554905,A,806.999,N,27084981.89,W,8.3,89.0241,748820,"
"imei:9825rmc:$GPRMC,117934*75791,V,8768.37618954,N,8099.7,E,83.23,6.489,090984,0{"
"imei:9&rmc:$GPRMC,203598@0,A,6894.3,S,898.9,E,2.77,,929283,"
"Spimei=9&rmc=$GPRMC,9493380,A,898292697.786918,N,836.9,E,2.881,,958843,/n"
"-5cjpimei:9&rmc=$GPRMC,308178<98,A,8734.2,S,999.8,E,99978.9,8.9,978198,"
"imei:9rmc:$GPRMC,637920u0,V,6888.9837,S,946.84989,W,8.17,,192691,"
"imei:42&rmc:$GPRMC,820896'8,V,398.2,N,7964.2,E,9.4,967.83,885822,"
"imei=92&rmc=$GPRMC,93444608,A,09929.4,S,7079.9,E,82.9,,856489,"
":imei=9rmc:$GPRMC,873585 8,V,893.9,S,3802.88899,W,4.98575,,288988,"
"\f%imei=19rmc=$GPRMC,083389S8,A,7119.29,S,99699.9,W,7909795.0,9.9,088486,"
"imei:639&rmc=$GPRMC,882098N8,A,611928.49,S,9520.25,W,9.8,,880592,"
"imei:9&rmc:$GPRMC,82866875,A,552.2,S,4264.21,W,80.0,,968592,W"
"imei=5&rmc=$GPRMC,974783\08,A,883.282,N,987.8,E,8.989,8.9882,899977,"
"imei=7rmc=$GPRMC,851088;0,V,8961.6,N,987.8,W,4.0,,997098,"
"imei:2rmc=$GPRMC,899917u95879,V,71842.5,N,799.9,E,9.7,93.8,539172,"
"imei=99&rmc=$GPRMC,850689g4,A,088.9,N,25492484.7892,E,78.38,7.3,397928,[,"
"imei=792&rmc=$GPRMC,160858~8,A,092.9,S,029575535.9,W,9.9999998,,878399,"
"imei:119&rmc:$GPRMC,271529498,V,761.086,N,99975.4,W,11883198.3,07.948,898894,\t"
"gimei:8rmc:$GPRMC,891895\r97,V,929.9,S,988.42,E,98.9,,463998,"
"K8n imei=3888&rmc:$GPRMC,991888C23,A,984.799,S,195381.6050,W,85.87,9.0891,978988,"
"9imei=98&rmc:$GPRMC,788825\v1,A,399.8,S,618.90,E,9.999,99.904,682616,"
"imei:88rmc=$GPRMC,854883o88368,A,989.2,N,5988.8,E,989.9,,859013,"
"imei:29&rmc:$GPRMC,464385(8091,A,1358.88,N,2896.55892,E,2.09,882.65,264997,=\a"
"imei:96&rmc:$GPRMC,389691c28,V,926.900,S,485288.8,W,8.5,8.81,371489,"
"5imei=9rmc:$GPRMC,198008W3,V,7398594.05,N,280.7,E,89.3,44.80,929898,"
"Jimei:8&rmc=$GPRMC,535636L8,V,609.8,S,882.08,E,97.8,9.496,084558,Ny"
"@\"gln?simei=88&rmc=$GPRMC,37889798,V,863.5,S,158.9,E,986.899,968.17,248908,xF"
"\bimei:49rmc=$GPRMC,097864t9,V,10128.1948993,N,208.38,E,7.99,88.996,811398,"
";imei:8998rmc=$GPRMC,809089\099,V,974.698,S,838.856,E,6.9198,,890590,"
