"#$GPRMC,369978.79398,A,2099.0,S,6995.59,W,,9.46,893887g"
"#cb$GPRMC,884650.203,V,0556.9,N,817903.9,E,3.9,183.9087,0158019>"
"#$GPRMC,929940.8,A,579636.2,N,997.4,W,5.7,19570.8,998890E"
"#$GPRMC,399929.7,A,28639.4,N,2539988.55,E,2.9,8.5,928794_-\aHgTL"
"#$GPRMC,888698.8,A,892.8,N,1895.6,W,3.8598,0.9,883469="
"#89b9$GPRMC,913608.4682652,A,9934.385,S,84798080.9,E,,578.119,881999"
"#9$GPRMC,894950.1,A,8599.8,S,0790.8,W,,8.9,014277.+"
"#$GPRMC,053698.85,A,9499.891,N,364.9,W,,,542918J"
"#$GPRMC,885198.88,V,44481.8,S,209.19,W,99.3,,578999ry0eS+"
"#$GPRMC,836802.9,V,984.41,N,974.695,W,09.5,0.89,743739|"
"#af$GPRMC,806899.6,V,0889.8,S,898.92869,E,029.49,83598.98,864039q"
"#$GPRMC,826919.59,A,28299.51,N,893.18997,W,9.2,,088983Z"
"#1$GPRMC,389798.7869,V,788.2938,S,367.980,W,5.090896,,759888\""
"#$GPRMC,834292.58,V,429988.810,S,2339.48,E,,8.8,989339v"
"#$GPRMC,993774.8,V,877.8,N,588.9687,W,0.94,,911443"
"#$GPRMC,881885.9,V,839.9,S,998.9,E,,59949108920048.8,8811895"
"#$GPRMC,072261.1,A,896.8,S,860.4,W,1.6,6.9,988478.^ZC"
"#e$GPRMC,395587.79,V,9917413.58,S,997.75891,E,27.9,,306913P)\t"
"#$GPRMC,918377.8,V,879.9,N,7449.8,W,,8.4,088681"
"#98$GPRMC,983097.95,V,948.8,N,6674.5,E,,,893859g\"N5"
"#d$GPRMC,729977.884,V,37865.19,S,677421898.870,E,,,689919"
"#$GPRMC,688987.9,V,5984.8,S,913.9,E,97.2,679680.90,368889|"
"#fee$GPRMC,869283.9,V,2994.85699,S,036469.8,W,8.999706,47895.6,866898]"
"#$GPRMC,882889.8,A,2870.19,N,98481870.890,E,,8.9,489193"
"#$GPRMC,991039.428,A,589.2,N,917.42,W,,,2988900U"
"#$GPRMC,193983.4,V,839.898,S,893.91,W,65.9,,886259("
"#$GPRMC,829989.8,A,054.88,S,822252.4919,W,,1.20,516961w@"
"#aeb$GPRMC,091173.81,A,092.2,S,8738.8,W,,6.990,989982%"
"#3$GPRMC,971309.498,V,230.84,S,98894.20,E,,997.8,903909u=_Z"
"#d$GPRMC,884978.9989,A,9840.0,S,8988.1,W,0999.8,4.296,874980#R"
"#7$GPRMC,391889.2,A,9991.2,N,883.2090,W,,,808188M"
"#197$GPRMC,888489.7,V,825.8,N,883.2,E,,,548148"
"#87$GPRMC,885889.0,A,899418.89,N,982.2,E,4.9286,9.899,358756\vc"
"#$GPRMC,300399.8,V,999.9,N,598.9,E,9.6,,981946_"
"#$GPRMC,813895.8,A,589.88888,S,722009.8,E,,9.6,596246r2B"
"#$GPRMC,557897.981,A,901330233269.897,S,506.0,W,,89.496718,888063"
"#$GPRMC,948588.10,A,299.91,N,486.98,W,,,984443<`1'^"
"#$GPRMC,395978.9988,A,596.2,N,988.0596,W,,,919791v"
"#fa9$GPRMC,988737.6,A,989.9,N,938.4,W,55.9,,989278x"
"#$GPRMC,916469.89,V,3860.5,S,8809.3,E,89.9,9284.70,999948^\a"
"#a$GPRMC,854928.892,V,662.89,S,093.6,W,,,875918"
"#$GPRMC,386828.39318,V,4987.32,N,489.9,E,,8.68607,963889q3G"
"#$GPRMC,333897.9,V,778.9,S,439.5,W,6.828583895,9980.9,003029s"
"#a$GPRMC,388483.95,V,588.4,S,688.88,W,,9.8,698058wVbp"
"#a$GPRMC,814338.36,V,04689.72,S,9799.0,W,,,994968&?"
"#$GPRMC,401449.5,V,8991.5,S,6604.4,W,,82.99,589939i"
"#b$GPRMC,593529.88,V,969.8,N,789.581,E,,746.57,939588\r"
"#$GPRMC,054618.929,V,877.8,S,197.1,E,3.97,,692468"
"#b0$GPRMC,980959.88952,A,999.76,S,6591.1,E,,4.8,999498B"
"#8f$GPRMC,591128.9,A,342.9,S,407.80,E,,,1629698 "
"#db$GPRMC,938669.9,A,882.6,S,8257.99,E,,8046.5,950999@^\fP"
"#de9199$GPRMC,889586.884,A,2292.3,N,600.9,E,,1.8299,948989\f~]"
"#1$GPRMC,938383.039,V,988.4,N,2285.9,E,814.2358,7609.5,969391y_"
"#b$GPRMC,248579.1,V,349.542,S,8899.588,W,3893.9,59.38,335838-"
"#$GPRMC,748939.38,A,598.5,S,8929.38,W,8.30,,6882006"
"#$GPRMC,988424.9928,V,088.998,N,4898.96,W,684.8,0.5,699476*"
"#$GPRMC,608782.4,A,9578.1,N,95904.4,W,9.583187,860.8,581681lI"
"#d$GPRMC,893992.2,V,5668.98,N,8127.078,W,6.9,,986857"
"#$GPRMC,598098.21,V,652.9,S,94904.394,W,9.9982,,415893}L1"
"#$GPRMC,983402.978,A,979.9287,S,999.94,W,,89.82,987899Z>"
"#$GPRMC,998170.8,V,9116.91,N,084.2,W,8.2,83.9,713796g"
"#$GPRMC,978126.8,A,878.3,N,858.8,W,986.9,,791698O,Z+"
"#$GPRMC,299386.979,A,90594.87,N,0194.0,E,87889.9,,395441\t"
"#$GPRMC,942090.48,V,0879.28,S,89997.1,E,,01.69,438969W"
"#$GPRMC,490358.0,V,885.6,N,095.589,E,98.99,8308.8,909637ur9"
"#8$GPRMC,598448.198,V,5938.8,N,9581.863,E,,,892933{"
"#e$GPRMC,206929.78,A,769.78,S,918.89,E,9.7,,998049 O"
"#$GPRMC,023089.96,A,349887159.0,S,982.5,W,669647.6,,358783Z"
"#2fff8$GPRMC,909805.8,V,89290.79,S,742.12449,W,8.53,7.51,694999\rY"
"#a9b$GPRMC,943984.89,A,93292.73,S,89802.86,W,1.8,7.87,899908L"
"#$GPRMC,789988.9,V,2811989068.68,S,69231.69,W,30495949888786798.8,,984409p$"
"#b99$GPRMC,867393.9,A,324.8,S,288.3,E,,,998888E"
"#$GPRMC,868982.90909009,V,958989.283,N,5887.08,E,,,038550\0;"
"#$GPRMC,899684.19,A,48382.0,N,1185.9,W,,8.18,850334d"
"#5$GPRMC,829186.0,A,9019515107.8,N,439.8,W,,8.496,585856/ "
"#$GPRMC,498698.614,V,88096.8,N,099.7,E,,,034748"
"#$GPRMC,159958.28,A,688.79,N,998.8889495,W,,,816580%"
"#fb$GPRMC,189668.994,A,8988.8,N,737.2,E,9964149.98899,3.108106,3164579v"
"#83$GPRMC,312997.9818,A,878.43,N,988.3,E,,950803.8,897730W"
"#aaf$GPRMC,889935.06,A,249.0,S,689.2,W,4.7,,858856k"
