"$GPRMC,893808.95883,V,199.288,N,9995.2,E,,4.881,382090\n*Fa"
"$GPRMC,848803.90,V,86098.9,N,7989.868,E,,9.9,698893\e*A1"
"$GPRMC,354062.4,V,99088.8,N,8510957.892,W,,,158809\b*Ad"
"$GPRMC,286999.888,V,5959.58,N,611.77,W,,,583959~(\a*49"
"$GPRMC,806799.084,A,894.88,S,280.8,E,,,999698c*fD"
"$GPRMC,603382.8,V,829.63940,N,3997.787,W,,8.8,928921+Um*82"
"$GPRMC,099286.9,A,988.48,S,154.984,W,,5.2,980861#*19"
"$GPRMC,738984.9,A,893.29,S,28892.47,E,,,3933049*89"
"$GPRMC,748869.54,A,899880.984,N,40029.75,E,9.9,2.8,488598%!*5f"
"$GPRMC,719828.9,A,227.8,S,688.831,W,8.9906,,882196\0*8d"
"$GPRMC,859112.045,V,7997185.8,S,5255.52,W,8.688979,36.994,888871Q*40"
"$GPRMC,980993.09,V,498.138,S,539.677,E,9.8,,991209T#*8F"
"$GPRMC,848834.9889,A,898.788,S,086.98,W,,6.1,909988f*4c"
"$GPRMC,900188.9,A,854.938491,S,989.4,W,,46.729,829498aFE*84"
"$GPRMC,994858.99,V,2892297.18,N,0991.08,W,2484981907.62,,886071K*F5"
"$GPRMC,998799.896,A,1128819.1,N,26188247.13,E,,,0231169t*bf"
"$GPRMC,486388.63,A,897.6,N,8285.6,E,6.891,,469988@\n9*7b"
"$GPRMC,236598.7,V,888.8,N,399.93,E,,,258099|cNiD*57"
"$GPRMC,019893.9,A,4915.9482,S,959.18,E,,9978.4,803883b*cA"
"$GPRMC,368988.7,A,488.99,S,896.9,E,9.49,,848968z*9f"
"$GPRMC,890672.8,A,490.8,N,544.3,E,,,978689O*9A"
"$GPRMC,846474.2904,V,698.8,S,299.5,W,,653978.7,791268u*62"
"$GPRMC,778898.89,V,8896.8881,S,84382872.96993,E,,96.8,882954\r*21"
"$GPRMC,689894.9,V,903.9,N,88929.0,E,,51.88,0889868*D6"
"$GPRMC,898898.84,A,989.95,N,346.766,W,9.2539,,8508983D*6b"
"$GPRMC,018735.938,V,491.5888,N,438.334,W,8.848,6.09419,947805bM*18"
"$GPRMC,888808.8,A,983.8,S,8888.69,W,598058.3,9.8,555799r:IG^*FF"
"$GPRMC,884891.8,V,80690.9,S,0989.88,E,1.86,788.8828,7988996*eF"
"$GPRMC,918958.9,V,5248.8,N,899.99949,E,,5.78,592955I*13"
"$GPRMC,829899.8989699,V,5937.8,S,6985868.940,E,,,198058wqZL*92"
"$GPRMC,119988.40240,A,9579.8,S,199.2919,W,,,91838354l*00"
"$GPRMC,332836.1,A,9989.2,N,1982.8,E,9.9793459,9.92,896548\fh*BD"
"$GPRMC,911248.19,A,9280658.2,S,668989.1288,E,838.3879812,,284895W*E8"
"$GPRMC,995935.3,A,034.8,S,857.0,W,,,788888*8b"
"$GPRMC,886498.15784,A,089.9,S,838.1,E,5.18,,633399*d0"
"$GPRMC,945359.03,A,9789.89,S,4898.999,W,8.82,,738238;*Dc"
"$GPRMC,726197.1,V,254.2,S,8278.3,W,9.9,,537965&*c9"
"$GPRMC,859082.4,A,816.6,N,9890.893,E,,39.8,889444m*94"
"$GPRMC,798812.96,V,873.7,N,791.0,W,8.8,8.89290,87120940*96"
"$GPRMC,348999.9,V,233.80,S,349.839,W,,6069.88893,897994`*39"
"$GPRMC,800899.9429,A,584.8984,N,8899097.6,W,,168.9,484184h*05"
"$GPRMC,846884.895,A,69362.5,N,1809.59,E,,889859.81888,211079\*aa"
"$GPRMC,090953.8,V,869.80,N,8908.0,W,,8.9,888739\03[1*dc"
"$GPRMC,583089.3,V,584.33,N,08186.017,W,,,952808\n*2E"
"$GPRMC,893087.9,V,89115.8,N,3919.35,E,89.3,1089.29,808818D*04"
"$GPRMC,899399.972,A,8985184.458,S,312.34,W,,886.1687,458979f*cF"
"$GPRMC,328898.0,A,089.0,N,899.8,E,5.8,28.086,093849~*c9"
"$GPRMC,965798.9,A,877.9,S,78980.39839,E,,,889499#?*fE"
"$GPRMC,990976.7,V,28824.99158,S,691.81,W,,3975.5982,484699*F4"
"$GPRMC,979895.92,A,093.483,N,899.49429,W,,3.88,859989{*63"
"$GPRMC,291941.9,V,9230.4,N,4892.39,W,,99.3,928978*98"
"$GPRMC,190928.9,A,559.188,S,258.89,W,,,798917-d*89"
"$GPRMC,999869.92,V,429.8,S,891.98992,W,,985.29,898991JE*cF"
"$GPRMC,897039.7,V,889996.9,N,803.730,W,3.5,,695881-+*BF"
"$GPRMC,298879.89,A,785.38,N,0952.98,W,,,386527_*cB"
"$GPRMC,174998.9,A,999948.8,N,3099.87,E,,,101143F*c4"
"$GPRMC,905409.1,A,898.5,N,076.8,W,8.9,15.9,839021/%*9B"
"$GPRMC,893996.99,A,9919599.8,N,379.78,E,,,210068@*af"
"$GPRMC,399981.2,V,87888.1593,S,3985.29,E,975.8992,,100992}*F8"
"$GPRMC,698822.89,V,235988.9,N,13949.9,E,87.9,,7488892*f8"
"$GPRMC,980919.9,A,998.575,N,98549.9,E,,42.8,396975x+*df"
"$GPRMC,836689.9,A,8889.4,N,3939.69,E,,,980199C*ab"
"$GPRMC,184859.9,V,858.989,N,858.9,E,1708.8,,887791*c9"
"$GPRMC,884899.899,V,831.8009,S,829.95,W,,,987799r*5B"
"$GPRMC,088748.2885,V,559.6,N,1983.00,E,,,930558V`g.?.>j/*9F"
"$GPRMC,977911.3,A,3919.0,N,89799.64,W,99.4,9.8,891879`*51"
"$GPRMC,199768.9,A,3610759.0,N,317.91,E,986.989,8.8,956931_\t|*63"
"$GPRMC,487344.28,A,7881439.686,S,500.7,W,,9.8,969909N*79"
"$GPRMC,353840.8,A,98985.9,N,642.35,W,288.8,8.84,945099XX*29"
"$GPRMC,846328.8196,V,4984.8,S,1889.995,W,4.7,,891998\e*d9"
