"Dimei=8rmc=$GPRMC,979433]1,A,8118.1,S,217378.8,E,0.294,8.689,972929,"
"3\bimei:91rmc:$GPRMC,801399'83339,A,5222.3,S,869.9,W,04.4,38.9881,198304,"
"imei=9rmc:$GPRMC,698442p90,V,2289.9,N,299.8,W,9.69,769.95,438559,"
"imei=9rmc:$GPRMC,767091P8,A,989.8,N,9189.9,W,8.1,,594999,S"
"imei=9rmc:$GPRMC,990926y9,A,4559585.89086988,N,932.8609,W,70.0,3.0,384988,v\rb9\a*][b6"
"imei=3rmc:$GPRMC,089904m3,A,9897.80,N,19818.201599,E,5.969,8.2,439809,j"
"imei:87685rmc=$GPRMC,9895599,V,859.7,N,8963.9,E,648.40,898614.76,588716,"
"Iimei:7rmc:$GPRMC,941897O76,V,9489.48,S,855.9899355,W,3.9891868648,2.78,699882,]@\""
"imei:91&rmc=$GPRMC,968196\v4019,V,1559.06,S,893.8,W,0.28,99999.89,498979,"
"veK\v99Qimei:885rmc=$GPRMC,977358s80989,A,0930.48,N,8968.9,E,38.9,24.98,888995,cK"
"imei:38rmc:$GPRMC,985382695836,V,6896.8,N,888.98,E,98.118,2.92,899198,"
"imei:2&rmc=$GPRMC,333370,1,V,740.72,S,959.85,W,8.023988,1.2,108388,"
"limei:8&rmc=$GPRMC,275788{7,V,29598.9,N,454.970,W,0.1,,988289,"
"imei:09&rmc=$GPRMC,89675878,A,587.4,S,994.7780,W,383488.8459,973.298,989498,"
"h%(imei:278&rmc:$GPRMC,949978S9,A,888.8,S,9190598.88,E,8.4917938,,882809,N "
"}\0\t7imei:809rmc:$GPRMC,843888<89,V,9453.98199,S,259.9,W,2498.500,93.89,282999,^hQs"
"$imei=9998&rmc=$GPRMC,889289\"8,V,807884852.9,N,998.894,E,01.4,,988298,y\a#l"
"imei=9rmc=$GPRMC,489848_9,A,593.0,N,996.8,E,8.2,,888771,"
"imei=98&rmc=$GPRMC,838993c2,A,099.6,S,899.4,E,3225.8,,193382,"
"imei=8088&rmc:$GPRMC,547595o0,A,42998.9,S,964.8,W,9.8,1.9,499858,"
"*imei=6rmc=$GPRMC,880977w91,A,963.88,N,928.8,W,8.8,6.699,398390,"
"imei:85489&rmc=$GPRMC,989943%8,V,8399.89,N,876.81588,W,81.4,,898710,\r \0"
"Zimei:89rmc=$GPRMC,863802n9,A,877.8,N,183.8,W,8298.1,,640989,"
"Aimei=09rmc:$GPRMC,998838X696,A,2229.8,N,8986.83,W,6.363,4.89,938791,"
"Cimei=9rmc:$GPRMC,298847V70,V,919.888,N,2869.8838,E,12.8,,998935,"
"imei:9rmc:$GPRMC,8449991,A,092.0,S,298484.98,W,99.0,,774557,"
"imei:5rmc:$GPRMC,659819W9,A,805.4,S,987.5,W,8.5,0.9,096599,"
"imei:9rmc=$GPRMC,719725\v2,A,839.14,S,9072.8,E,584988.09,,652266,,"
"imei=1rmc=$GPRMC,256520'02,A,960.9,N,56749.88,E,2.3,0.1,809986,\"
"imei:4&rmc=$GPRMC,248900>98,A,486.9,S,9899799.9,W,8.9,,839898,"
"imei=58&rmc=$GPRMC,53019014,V,8884.48,N,958.9,W,0.955,,490823,"
"\0_imei=8&rmc:$GPRMC,871873)8,V,815.2895926,S,3727.51615,E,1076.92,9.7,981851,U"
"imei:288rmc=$GPRMC,802184!78,V,847.3,S,8588.98,W,9.74,70.4,844898,"
"imei=29&rmc:$GPRMC,289198\"8,A,991.8,S,9632748.1993,W,6.8,8.98984,819891,"
"imei:7rmc:$GPRMC,485588{4,A,9988389.4,N,986.88,W,119859.8429,,591838,"
"imei:9&rmc=$GPRMC,022957539,V,918.9,S,6899041.8,E,187.4,78.8,283999,"
"Y.imei=88&rmc:$GPRMC,907085L3,A,7980999.89,N,898.9989,E,838.7,8.958,887057, "
"+imei:883rmc=$GPRMC,392347L8,V,108.9,N,38399028598.986,W,08.23,58.991,398288,PM"
"imei:198&rmc=$GPRMC,309749785,A,15286.7,S,790.92,E,22118685.9,9.0,840239,"
"qimei=58rmc=$GPRMC,899952N8,A,182.759,N,54959.887792,E,72.9,791.9,098938,"
"\0;bimei=8&rmc:$GPRMC,888133m36,V,157.9,S,881.864,E,9.19,9.5,359983,"
"imei:9rmc:$GPRMC,397073(9,A,898.9,N,958.0,E,180661.989506,7.5,024988,"
"`imei:70rmc:$GPRMC,898868x9,A,796.9,N,299.32,W,8.09,,825993,<="
">o[!imei:31rmc=$GPRMC,126997K1195,V,978.98104,N,8296.8,E,94892.8,1.91,881889,"
"imei:898&rmc=$GPRMC,998988e8,A,8090495.9,N,188.92,W,29.9903,9.88,951034,"
"imei:3&rmc:$GPRMC,558990G0,V,698.59,S,1745938.05,E,29.8,,078934,"
"imei:6010rmc=$GPRMC,80048978,A,943.7,N,9898.0,W,9.289,,898188,i%?&"
"Kg7imei=8&rmc=$GPRMC,985895<9,V,841.87,S,998.68998,W,8.45,0.4,848983,"
"Limei=88rmc:$GPRMC,585688(19,V,881.80,N,9476.96,W,4.6,,999838,"
",imei=5508rmc=$GPRMC,998881P90,V,199.6,N,595.12,E,5.65,,929319,+"
"7imei=992&rmc:$GPRMC,808840'4,A,969.477,N,951.8,E,828.089,09.84,158986,"
"imei:6878rmc=$GPRMC,099895\"89992,A,942.09938,S,968.77996,E,899.8,,489805,"
"limei=9&rmc:$GPRMC,947317O8,A,2588.86,S,8807.98,E,1.9,8.9495,858987,"
"imei:088&rmc=$GPRMC,0437699,V,916.87,S,628.8988,E,7.92,,567828,"
"Fimei=488&rmc:$GPRMC,9084907288,V,884.8,N,1951.3,E,26.9,,868998,"
"imei:4rmc=$GPRMC,89586812879,V,889.1,N,583.7,W,8.0,,489289,X"
"imei=96rmc=$GPRMC,901838 3,V,278.95,S,419655.80,E,898.2,,168609,"
"\a9imei:88&rmc:$GPRMC,609093Z4,V,98508.0641,S,8284.4,W,9.9,,988632,e"
"imei:9rmc:$GPRMC,318662t6,A,8878.68088,N,607.3,W,249.98,,969863,"
"imei=80rmc=$GPRMC,23495828,V,838.8,N,2737998.8920216,W,86.0,,189289,"
