"#b3f$GPRMC,983429.9,V,299.89,N,1588.5,E,,8988.88,834905W"
"#$GPRMC,962358.97,V,4089.9,N,9848.451,E,,9.34,094982X"
"#19$GPRMC,798986.9,A,7988.8,S,308.8,W,,,897877_u"
"#$GPRMC,984299.39,V,494.529,N,958.49592,E,,,599998cL%w"
"#1$GPRMC,488793.6,A,834.2,N,8828.88,E,4.6,8.69,551895Qo"
"#acafa$GPRMC,982799.49,V,8924032944.0,N,8999.99,E,,6.8,758099"
"#$GPRMC,669089.1,V,888.0,S,897985.994,W,,,702891"
"#1$GPRMC,052295.9,V,984.8,S,098.7,E,,8.3,864807{"
"#$GPRMC,959796.99,V,6782.80,N,9184.8,E,78.4,557.99,1289500"
"#$GPRMC,895179.62,A,885.9109,N,980.7,W,,,058697G"
"#$GPRMC,988364.9,A,9469.3,S,8980.8,W,1.98,9.68280,878229z"
"#fa9$GPRMC,876080.5078,V,9821.6,S,518.9,E,,,981999\"
"#$GPRMC,209049.6,A,9582.4,N,8728.8,W,,,609935k "
"#8$GPRMC,849928.8,V,727.01,N,778.9,W,8.88,,949861ZZ"
"#$GPRMC,804098.28,A,988482.4,N,7588.1,W,,9.8,094898ao}-}"
"#8a$GPRMC,892488.9,A,699535.4,S,998.398,E,,,230009sM"
"#$GPRMC,981998.7,A,859.98,N,799.8,E,,,871326R"
"#8$GPRMC,529999.88108,V,668.352,S,758.4,W,797.4,,785636P"
"#a$GPRMC,697393.8,A,710.4,S,819.8,E,,,187905XF"
"#1dcd$GPRMC,984895.89,V,982.8,N,059.91,W,,,031784="
"#$GPRMC,776990.0,V,7099188.4,S,986740.72,E,,9.1,997804C\tP"
"#$GPRMC,796213.6,V,3829.883879,N,89818.56,W,,29.514,688829\f/"
"#$GPRMC,976829.8,V,8914.0993,N,968.81,E,5.698,54.33,976090_\f"
"#7c7f9$GPRMC,889979.79,V,997.0,S,507.83,W,6.984,6.8,928999"
"#$GPRMC,849488.38,V,838.9,S,4928.4819,W,3948.59,,689939,zM"
"#$GPRMC,748302.9,A,979.89,S,982.8,E,,90.95,520891)"
"#f$GPRMC,498858.34,A,5627.9787,S,668.8895,W,98.4,,189828@"
"#a$GPRMC,471996.982,V,9247.91,S,810.9788,E,5.0,4.8339,583172C"
"#6$GPRMC,253639.8,V,3957.08,N,980.9569,W,8328.1,,857894:|\"
"#a$GPRMC,529960.3,A,898.9,N,989.699,W,,,019892}"
"#$GPRMC,970040.8924,A,88402.2,S,2996.39,W,,4.7,794948\bh"
"#$GPRMC,838979.8,V,987.299,S,6099.9,W,,,104495!"
"#$GPRMC,888887.99699,A,281.61,S,709.9,W,,,923825M"
"#$GPRMC,888887.889,A,92890.9,S,89989.3,W,8.89098,,998510s"
"#c65$GPRMC,857929.4,V,899.464,S,335.8,W,,,099905"
"#$GPRMC,889439.8,V,896.9,N,829956.0,W,98.73,4.4,885354c"
"#$GPRMC,731698.438,A,668.153,S,998.5,W,,,588899\f"
"#9$GPRMC,089981.99,V,997.8,N,9138.898,E,,,923782\f%-d"
"#$GPRMC,899289.1,V,84598.8,N,242.18,W,,2801.71,999799G"
"#8$GPRMC,683859.0,A,7961.286,N,995.82,W,6.0,9.9,994769Zx"
"#0a5$GPRMC,919999.8148,A,8008.5,N,393.1,E,36.9,2889.9,424992Qe|"
"#04$GPRMC,218117.83,A,924.2,N,596.83,W,,89.9,8287822m"
"#$GPRMC,884486.86,V,29296.9978,N,927.96,E,9.2,05.500,974986\b"
"#3952$GPRMC,948178.98,V,2610.35,N,8840.8,W,2.58,9.2,861389i"
"#$GPRMC,867593.760,A,899.9859,N,184.49,E,8.998,89918.989995,128998\0"
"#9$GPRMC,983769.8,V,9494.9,N,283.293,W,,,928264g"
"#fc63$GPRMC,898299.988,A,5888.99,S,89978.0,E,8.8,7.9,0882896\e"
"#8$GPRMC,417908.97985,A,700.9,N,8698.799,E,,,694839ek"
"#9ec886$GPRMC,284893.59,V,848.48,S,4998.8,W,,1.39588,449584=K8"
"#$GPRMC,922158.8473,V,68508.39,S,6991.205196,E,,,908458"
"#5$GPRMC,614349.7,V,9944.849,N,70199.83,E,0.51,8.3,589024:"
"#a3$GPRMC,839338.5,V,889.28969,S,989.16,E,,8.889,484482Y"
"#$GPRMC,071018.88148878,A,2883.8,N,581.29,E,8.8999,,590139j|="
"#8b$GPRMC,894908.84,A,27035.9,N,809.871,W,,,248196#"
"#$GPRMC,980858.3,V,10988.0,N,888.4,W,,2.898,819290fD"
"#$GPRMC,989219.9,V,9989.3,S,981.2,W,,,874933dk"
"#a$GPRMC,839908.8,V,255.642,N,01892.29,E,,,789886><"
"#b$GPRMC,828894.1,V,685.98,S,993.1,W,,3.7,4888865Ys~"
"#$GPRMC,939999.9,V,4364.1,N,887.0,W,881.9,,781999-2"
"#$GPRMC,839238.81,A,5791.9,N,881.98,W,3.95797394,88.91,363906[7"
"#b$GPRMC,475993.9,A,5998.89,S,92189.8,E,799.88,9.4,829098\vQDb"
"#$GPRMC,893328.9,V,9669.6,S,891.9,W,7.84,6625.2729,199822u"
"#d$GPRMC,593749.8,A,4576.7,N,78092.49,W,,,881219+"
"#$GPRMC,956998.11,A,6910.1,N,889293.94,E,89.9,,896615_^"
"#d$GPRMC,951884.194,V,398.1,N,4685.1,W,,,498676N|"
"#$GPRMC,608303.489,A,8572.2,N,89193.9,W,2.88,7865.898,792978g-"
"#$GPRMC,886909.9,V,0483.89,S,472.5,W,,38885.9,544307\e"
"#$GPRMC,953488.0,V,949137.989,N,898.47,W,3999.2,5.12,488839q*"
"#f$GPRMC,998468.6,V,988922317.1,S,885435.8,E,9.5,9.893,993598Gu["
"#$GPRMC,307989.49,A,9288.6,N,1715.3,W,4.89,9.8,898793"
"#$GPRMC,855794.95,V,08969.973,N,998.859,W,,4.48,935689^"
"#882$GPRMC,313042.6,V,538.29,S,01883.6,W,4.9,1.8,579378\eS"
"#2$GPRMC,828399.98,A,30988.388,S,8213.943,E,,,558725/"
"#$GPRMC,819909.01,A,889.983,N,219.9,E,8.4,3.1,768667S_"
"#$GPRMC,588408.73,V,4998.58981949,S,189.1,E,,,884887?G\r"
"#a$GPRMC,288980.98,A,084009.56,N,02179.8,E,844983.4,899.6,285298"
"#9803$GPRMC,187096.4,V,9676.2,S,498.8,E,,98308.2845421,214736\a"
"#a31$GPRMC,581093.48,A,9987.9,N,48939.99,W,2.99,,888229B"
"#bb$GPRMC,298983.6,V,8265.3,N,59189544.3,W,58.989,,5635810hTJDq"
"#$GPRMC,818761.695,A,0188.99,S,887.8,E,,,627383@"
