"$GPRMC,819992.9,A,886882.6,N,8986.9,W,,8.3,74065818*Da"
"$GPRMC,984981.1,V,8995.8,S,7895.99,E,438.989,,884921p*Ef"
"$GPRMC,899495.9,A,8649.9,N,668.6,E,,,844180'++eB*93"
"$GPRMC,613899.8,V,038.9,N,48586.9,E,2.61,52.98,9988860Z~*ab"
"$GPRMC,998908.228,V,566.9,N,1119.8,E,8.86818,,352919f*59"
"$GPRMC,229889.492,V,489.888787628834,S,111.11,E,,8.2,888508\v*a6"
"$GPRMC,898219.9,A,281843.80,N,5989.81,W,490.99,91889.10,959689>w*88"
"$GPRMC,145537.4,V,3993.9,N,765.4,W,,,987931*71"
"$GPRMC,984676.45219969,V,58598662.6,S,8813.9,E,,,873999c*ad"
"$GPRMC,998990.3630,V,881.9931,N,631889.8,W,0.83,,204028\mO#*40"
"$GPRMC,696698.8,A,876.01,N,390.6,W,7.9,6.508179,318101s*fE"
"$GPRMC,445689.90,A,898.0,N,028.9,W,1.677,,298851yw*bd"
"$GPRMC,688298.8361,V,088.990,N,989.985,W,,,881989G*38"
"$GPRMC,488951.4,V,3338.3,N,8013.9,W,1851.92,,987885*A4"
"$GPRMC,793420.1,V,696093.1,S,998.8,E,,00883878.8988,869459\e*D9"
"$GPRMC,889883.8,A,803.9,N,7436.7,E,,,248168\n*aC"
"$GPRMC,878037.86,A,809.68,S,9868.28,W,,,791802C*e4"
"$GPRMC,659786.9,V,90190.2,S,66659.5,E,98209.5,299398.9,098804&~*AA"
"$GPRMC,900489.92,V,3747049855.78,N,829.89,E,,,696488,*ae"
"$GPRMC,399458.0,V,686.504,S,656923.8,W,,,073128w*C9"
"$GPRMC,577298.1,V,801.9,S,9978.9,E,3.849,2079.1,852389\0*a5"
"$GPRMC,791259.6,A,098.898,S,139.2,W,,2.0889,0586803*CA"
"$GPRMC,449691.298,V,896049.8,S,9815.7,W,,4.8,982689w*CF"
"$GPRMC,288841.9,V,7825.3,S,7989.3,E,,,580783*7A"
"$GPRMC,994991.8,V,629.1,N,413.79288,E,9836.669,,9988898*60"
"$GPRMC,269088.9,V,429.858,S,905.39,W,2.8,,905485L*84"
"$GPRMC,683668.8,A,5599.88,N,7938.95,W,,9.8,959206*98"
"$GPRMC,684280.8,A,498.8988,S,3751.4,E,,878.6947,426892h*78"
"$GPRMC,919985.98,V,398.0585,S,7999.2387,W,3.8,0.055,439128m[*29"
"$GPRMC,288813.889,V,9180.8,S,89494186.4,E,,3.84,498551|e~*f9"
"$GPRMC,835083.8905989,A,578.4,S,8366.5882889,W,,,989648(*80"
"$GPRMC,915389.6,V,89291.2,N,808.99,W,9.7499,,349669AA*A8"
"$GPRMC,954259.918,A,089.9931,N,9920.332,W,,0.8472,697531\]*8c"
"$GPRMC,599779.0,V,979003.9,N,983.9992354,E,,532.9,975780*D0"
"$GPRMC,099989.6,A,968.9,S,939.9,W,,,2707957*Ab"
"$GPRMC,305789.1,V,9430.7,N,393.9,E,,,919699Dx*81"
"$GPRMC,690464.58,V,30907.3,S,8814988.4,E,9.3,2.293,339999;]?(V*Ee"
"$GPRMC,572998.496,V,028.9,N,89997.8,E,,888.4,779469\"*a0"
"$GPRMC,844528.875,A,51782417.6,S,869.88,W,,,768983e0*bF"
"$GPRMC,059779.8381,V,924.28,N,508308.9,W,0.9,,899999mH*8e"
"$GPRMC,359889.46,A,2494.0,S,78856589.945,W,,,290486,*64"
"$GPRMC,719370.48,A,965.626886,N,8557.59,E,,,258827]*69"
"$GPRMC,052698.8,A,098.8,N,17728.82,E,8.8,,8986197*98"
"$GPRMC,962709.26,V,88609512.08,N,566.61,W,,998.8,895935K*ba"
"$GPRMC,878897.71,V,1318.81,N,199.09,E,,3.1189,487849,*Fb"
"$GPRMC,835324.7,A,512.52,N,9894.0,W,8.299,,741822fs*Ff"
"$GPRMC,191967.7,A,254.0,S,889.7,W,88.0208,3.2,837508\aKG*51"
"$GPRMC,908929.884,V,0559.8,N,993.19,E,9.9,,801667o`~C*8b"
"$GPRMC,099887.3193,V,419.64,S,91816385999.3,W,,,258694|*ab"
"$GPRMC,459999.963,A,84989.789,S,5853.99,W,974.9,9679.9,889689o*ba"
"$GPRMC,942014.8,V,9978.00345,S,898.8,E,2.99,1896.8,999493%*AE"
"$GPRMC,389888.86,V,298.69,N,0904.9,E,98498.94,,694048G}H*9F"
"$GPRMC,935888.8,V,9292499.939,S,996.603858,W,,397.9,682639rtfp*88"
"$GPRMC,478999.88,A,29707.08,N,058.10488,W,,,779794*9f"
"$GPRMC,804189.40,A,4884.288,N,4913.783,E,5.8,,686849E*52"
"$GPRMC,314800.98,V,9987.8338,N,15888997.3,E,,,986494*e9"
"$GPRMC,694494.5,V,999.6998,N,870.9,W,,,880798\v*FA"
"$GPRMC,588042.479,V,99989989894.8,S,9958.6,E,,9.5,5888991O*D6"
"$GPRMC,205260.2,A,189.2,N,681.9,W,6.8,959.8,765892*83"
"$GPRMC,845424.58,V,881.9,N,09092.8588,E,,,298753{*fd"
"$GPRMC,283260.8,A,499.974,N,996.0,E,,93.9,990888/*b9"
"$GPRMC,035897.93936,A,899.86759,N,809.58,W,,,966226M*8d"
"$GPRMC,839566.688998,V,91968.891,S,880.2,E,,,488753j*8e"
"$GPRMC,881499.6,A,004.8,S,837589819.972,W,88.3308,35.64,846439*23"
"$GPRMC,380934.89,V,94888.19,S,259.88,E,,4.4,649824N*A8"
"$GPRMC,318849.55,V,989299.910,N,8995.46715,W,,965526.9,599781]*9A"
"$GPRMC,889937.980,V,8986.109,N,998882.84,W,528.2,499882.91,990849 ED*B5"
"$GPRMC,139908.82,A,049.8,N,9891.8,E,,,891909\S*6F"
"$GPRMC,635138.9,V,879908.605,S,088.3,E,,7.8,388789}*68"
"$GPRMC,099058.4,V,845.9,S,50949.95,E,68.1,,988959*69"
