"3WLZZKvgimei:82rmc=$GPRMC,399992t9,V,9999.6532140,S,9181.89884,E,8.9,2.838,150753,5"
"kimei:9&rmc:$GPRMC,29994818,V,968.5,S,298.6,W,88.6,99.639,705489,"
"5kimei:888rmc=$GPRMC,179990v9,V,64944.527,N,797.1,W,237.3509,4.82,778809,"
"imei:9rmc=$GPRMC,139849s01,V,15428.99,S,57081.8,W,2.1,,999198,W"
"imei:85&rmc=$GPRMC,198740\b589,V,2962.9,N,888.89,W,2.41,98.992,894980,"
"imei=86&rmc:$GPRMC,7459802,A,89983.8,S,898.948,E,55.66999,6.25,267628,Q"
"imei=78333&rmc:$GPRMC,2294098,A,9691.880,S,3899.88488982,W,6.8,5.8,578881,"
">$imei=88rmc=$GPRMC,952989\"9,V,986.0,N,0996.97,E,8.9,6.098,815819,A"
"\0imei:693&rmc:$GPRMC,8634986,V,991.5,S,585.7,E,2099.9,8.89,929994,D"
" imei:124&rmc=$GPRMC,984488]83,A,395.8,S,849.488,E,2.8,,998829,"
"Ximei:7rmc:$GPRMC,9859325,V,8306.0,S,0966.1,W,989.9,,999534,uu"
"&limei=587&rmc:$GPRMC,1813889,V,749.8,S,762.85,E,8.8825,,918484,"
")imei=9798&rmc=$GPRMC,669889Z9,V,924.859,N,3798.999,E,9.8,20.88,397889,"
"imei=91&rmc:$GPRMC,6443840,A,629.49,S,2887.579,E,5135.994,,885061,"
"imei=917&rmc:$GPRMC,702898N8,A,8739.8,S,7014.9878,W,396.6,7.4,852824,g"
"imei:868&rmc:$GPRMC,892794p348,V,842.16,N,8068.09125,E,3.2,,139848,"
"iimei=99&rmc:$GPRMC,879328B1,V,871.7,S,45952897.8811,E,90.9,,489688,"
">Iimei=8rmc=$GPRMC,2979582,V,8299.3967,N,7979.187,E,8.979,82.9920,999277,"
"imei=8rmc:$GPRMC,894482{7999,V,593.46,N,458.6,W,8.8931381,74.7,981998,oI"
"_zPtimei:396&rmc:$GPRMC,991989879,A,88908.288,S,889.5,W,6.88,,938013,"
"wimei=3&rmc:$GPRMC,822196m949,V,857.61,N,8788265.7,W,6.1,9.93,889372,t},"
"imei=9&rmc=$GPRMC,8858283,A,9848.2,S,79889832.09,W,2.4,199.9,998268,"
"nimei:38rmc=$GPRMC,86389619,A,406951.9,S,89689911.8,E,396.8,9.8,947593,^B"
"\"imei=8&rmc=$GPRMC,959899x8,V,819.93,N,989.1,E,467.4,9.9,993969,"
"imei:989rmc=$GPRMC,2168846735,A,149.8281,S,384.99,W,4.0,88.89,838788,"
"imei:92rmc:$GPRMC,983986o87349,V,565.95845,S,441.2,E,0.81,,516599,RRXZ"
"imei:14947rmc=$GPRMC,989695h79,A,5398.9,S,593.4,E,3.2304,,099279,"
"imei=0rmc=$GPRMC,859386.3,A,208.36,N,84679.8,E,89.88,85885.94,118438,"
"m[m'BQimei=98rmc=$GPRMC,9619089,V,822.9,S,589.6,E,34.92,,949198,"
"imei:989rmc:$GPRMC,888858c8788,V,89048992.0,S,889.7384,E,4.2,,888928,"
"Fvimei=8&rmc=$GPRMC,8938897,V,889.99,S,2288.28,E,5.2,,036645,"
"imei:6&rmc:$GPRMC,389099L98,V,508.29,N,999.96,E,5.58,9.3,038335,`-"
":imei=8rmc=$GPRMC,805238N9,V,8889.2,N,7799.0,W,2.88,,898123,E&+}h("
"t2imei:9rmc=$GPRMC,709688@7,V,896.9,N,6894.4,W,8.3,06.84,246991,"
"]imei=5182&rmc=$GPRMC,905926j2,A,790.2609,S,319.28,E,8.8,,088089,"
"]XXuNimei:69rmc=$GPRMC,939852769,V,634.8,S,539.7,W,0084.7,8.997,394392,@>xRJ"
"imei=29&rmc:$GPRMC,298828d3,V,948.2,S,999.9,W,48.97,28099.93,888881,"
"imei:8&rmc=$GPRMC,282983~8,V,894916.899,N,008.823,W,4.991,,589624,"
"uP7vPimei:869&rmc=$GPRMC,917899t86,A,535190092.6964,S,8998.8,W,898.89,77994.18,190898,"
"Bimei:8&rmc=$GPRMC,8881818,V,828.62,S,18953.7,E,2.93865,,526618,"
"imei=84323rmc:$GPRMC,869072|4,V,819071.887,N,8119587.33,E,8.3,,689878,"
"jIk\"Pimei=99&rmc:$GPRMC,893839<8,V,832.8,S,669.8,E,8.7,,175472,"
"u\0ximei=958&rmc:$GPRMC,981996!5,A,9298.8,N,291.8,E,93589.8,99969.8,982328,"
"imei:99&rmc=$GPRMC,98988349,V,197.2,N,8890.5,E,2.39,,958928,"
"nimei=2791&rmc=$GPRMC,8995439,V,663.5,S,9488.998958,E,1.726,8.8089,628936,"
"imei=8&rmc=$GPRMC,757980\a78,V,543.8,N,580.05,E,582.8,,998889,r\b"
"#aimei=9rmc=$GPRMC,098897X9,A,982.9,S,8720279.90,W,62.717,,888619,"
"ximei=7899rmc:$GPRMC,989984}886,V,960.4899790,S,87986606.083,W,7.8,5.100,898990,"
"3Bimei:9rmc:$GPRMC,117888559199,A,889991.3822,N,9187.012,E,4945.9,8.86,898994,"
"731imei=3rmc:$GPRMC,356909m0,A,998.89,S,7627812.1,E,38.7,,938598,O3"
"imei:8rmc:$GPRMC,679545l80569,A,899.992,N,118.8,W,1.68,,999986,"
"Oimei:82&rmc:$GPRMC,386945(1,V,413.8,N,884.987,E,5.2,,726138,"
"@_imei=4rmc=$GPRMC,78013984,A,8193.8,N,9383.9,E,725.8939749,8.8,669886,m"
"imei=499rmc=$GPRMC,899986T8,A,9199.1,N,806.9703,W,793.84,,897859,\v"
"/imei:9&rmc:$GPRMC,796999-8,V,899.9628,N,95889.1,E,2.24,2.949,458632,"
"imei:1896&rmc=$GPRMC,586818B6,V,0530.3,S,986.98,W,1.19,,887999,X"
"Kimei:9&rmc=$GPRMC,888909i958,V,889.5,S,388.9,W,98.7,,918674,"
"imei=98995&rmc:$GPRMC,846953T0,V,7881.80,N,8468.99,W,78.8,7.8,582088,q"
"imei=9rmc=$GPRMC,390762\v612,V,904.8,S,999.0,E,8.8,,586759,"
"imei=59&rmc=$GPRMC,980398-9,A,288.53,S,89771.591,W,0.66,0919.91,179666,\r\"
