"#$GPRMC,899848.9,V,5899.8989,S,991650.98,W,34.1,8.9,898498G"
"#$GPRMC,338888.099309,A,988785.8,S,5285.986,E,,1.9999,384945<|/E\v("
"#8$GPRMC,383699.1,A,980.9,N,922.89,W,6.8908085,,398896\"k#<"
"#$GPRMC,097798.0,A,885.98,N,681.8,W,0.95,,697196q"
"#b9$GPRMC,688388.756989,A,821.8,N,399095.99548,W,792.8,0.98,876510<"
"#0$GPRMC,439888.6,A,83893.1,N,57669.59,W,,,996893z"
"#$GPRMC,355990.73,V,95489.4,S,89199.5,E,,5.5932,089991=_"
"#$GPRMC,989295.0,V,44788.98,S,98691.2,E,,,088886Bt"
"#14$GPRMC,984602.2,V,499.8,S,938.76,W,,9397.9,829038p"
"#$GPRMC,550398.9823,V,980.92,S,0894.3,W,,,982988["
"#e8$GPRMC,988138.588,A,073263.1,S,4289.99,E,75.5,89.7,985498tKb"
"#9$GPRMC,289169.0,A,488854.4,S,713.2,E,18.8,96.88899,9955908"
"#$GPRMC,862799.5,A,7999.8,N,107.90,E,8888.89,81.891,879922YLS"
"#$GPRMC,878499.81851,V,997.87,N,8930968.9,E,89.0,98.3,898989!eo@"
"#$GPRMC,998078.81,V,11428.9,S,893.21,W,,,882988"
"#$GPRMC,926290.7,A,790818.52,S,881.86,E,,97.17,871876A"
"#$GPRMC,529955.99,A,899.09,S,89197.58,E,985.682,,570987W"
"#$GPRMC,919898.8,A,08858.808,S,531.999,W,,54.0,988999R"
"#$GPRMC,684090.9,A,988.5,S,5989.7,E,,,2991037V"
"#dc4$GPRMC,285550.0,V,9949851.33,S,930.812,E,,,899879>"
"#$GPRMC,929898.9,V,995.208,S,0185.186,E,,9139.83,658978)P."
"#c$GPRMC,986983.6,V,888.89,N,907.9,E,,,089492qR.O"
"#c$GPRMC,765877.8887,V,99293984.5,N,988888.4,E,2.2,,397893\t"
"#a$GPRMC,152691.88834,A,0129.85,N,788.9,E,98.28,86869.5,879059T^"
"#9$GPRMC,861696.08298,V,708.69999,N,7872.5,W,,40.80,9892009w"
"#8$GPRMC,797678.0,V,808.8,S,9889.7996,W,5.00,,879292T.AY"
"#$GPRMC,828191.9987,V,187719992.9,N,599.804428,W,92.782891,1.6,838357o"
"#$GPRMC,898596.5,V,898839991.9915,N,961.0,E,9.15,,887444Z"
"#e$GPRMC,354289.8,A,93703.97,S,2882.8,W,,9.87,499989~T"
"#$GPRMC,949982.49,A,79189283.39,S,8814.9,E,,,5522496"
"#$GPRMC,188844.988,V,287.86,N,97889281.9,W,,,938999_"
"#$GPRMC,876098.00,A,9230.26,S,899.984,W,6.195,,989818\ac"
"#f9$GPRMC,994391.9,A,222989.9,N,368959.989986,E,89.99,,926006#T,"
"#e$GPRMC,399388.7,A,531.99592,N,889.6,W,9.94,9.7,897988JDB"
"#$GPRMC,889788.5,V,0998.028,S,4286.3,W,,,699888R"
"#f89$GPRMC,896858.884,V,022965.1,S,88988.9,E,1.8,89.490,885598d"
"#9a$GPRMC,293999.5,V,4029.3939,S,819.9538598,E,3.59,,887998d"
"#$GPRMC,983399.9,V,8992.8,N,8985.39,E,,2.3,908659"
"#$GPRMC,999881.8,V,493.9,N,7501.49458,E,,,892288+"
"#d9$GPRMC,890054.84,V,898.3,N,9394.919,E,8.28976,93.54,9897948%"
"#$GPRMC,816490.028,A,898.1,N,929.39,E,,82.148,981908\a9"
"#4a$GPRMC,918996.6898,V,98425.59128,N,98918.99,W,9.2983,,883282y"
"#$GPRMC,767296.87,V,180.9,N,769.677,W,,89.9,443651FM"
"#f$GPRMC,931994.13,A,9184.288,S,8124.8098892,W,279.7,,238988I"
"#7d$GPRMC,099963.9,A,1058.6,S,38996.3,W,997.8,957699.99,292982"
"#$GPRMC,895899.9,V,8938308.4,S,930.8,E,,,177998M"
"#$GPRMC,878997.94,V,73494.8,N,59891.07,W,,8.9,198225\"N"
"#$GPRMC,598838.8,A,30188.8,S,288.8,E,,,2927956"
"#7$GPRMC,983888.9,V,950.66,S,0656.7,E,8.69,17.86,989401"
"#$GPRMC,482858.8,V,189.4390,S,1060.9,W,,,763599N"
"#af49$GPRMC,776880.7,A,1095.5,N,985.89,E,7.88,3.45,896353'"
"#a$GPRMC,958291.9,V,793799.3,S,97038.99,E,,,8752409"
"#$GPRMC,514555.95119,V,4679.9,S,98895.99,W,,4.9,891890Fe"
"#b$GPRMC,058088.88,V,29957.994,S,90841.7,W,3.88,95.9,089935E\"
"#9a$GPRMC,586891.8,A,971.8888,N,998996.9,E,3.2,,909618\a"
"#$GPRMC,889194.3,V,9828.848,S,999.99,E,9.88,869.9,949686x"
"#d$GPRMC,804989.8,V,290.92,S,95518.341885,E,23.9,,109996U"
"#f$GPRMC,888998.85,A,10146.5,S,98948.4,W,,8.8,0199837\bu;"
"#$GPRMC,788990.82,V,3939.3,N,4034.9789499,W,,,289889&"
"#8$GPRMC,369992.22,V,248.64,N,989.6299,E,817788.9,8.84,888912Xy"
"#99$GPRMC,687879.988,V,982.0992,N,88564.11,E,49.5,7.18,5939300"
"#cdd11$GPRMC,797998.28,V,43548.8,S,994994.9,W,9.9837,,730645c"
"#2c$GPRMC,298091.8,V,8929.98,S,863084.89,E,35.7,9.6,881538y\r"
"#2f$GPRMC,999290.9,A,911.8,N,43861.989,W,88.196,9.1,721882\et"
"#2$GPRMC,888962.52,V,478.035,S,189.3,W,,4.9,999898!"
"#e$GPRMC,348858.859,A,3780.8,N,3894.8811,W,8.0,,380199Yo"
"#27fe8$GPRMC,979787.80,A,958.1,N,976.1,E,25.6596910,8.998154,888195)z"
"#a$GPRMC,895864.88,V,690.8,N,19931.18,E,,3.7088938,290782`"
"#8$GPRMC,359663.9,A,459.2,S,085.2,E,997788.86,,049229"
"#$GPRMC,208878.835,A,972.9998,N,8789.92,E,,8.983,9802888"
"#$GPRMC,503209.2,A,790.8,S,98497603.79,W,,2.9,878937)4"
"#$GPRMC,708551.07,A,787.636,S,300.75,W,,2.4,982988"
"#$GPRMC,199288.9,A,896.788,S,0428.286,E,49.7,,9038880"
"#ee$GPRMC,920999.87,A,2889.18,S,0399.9,W,2.439,,897326lm"
"#$GPRMC,983448.080,A,9878.80,N,179.55,E,7.94598,,907789*w"
"#1fb$GPRMC,985094.5,V,847.858,N,03876.94,W,949.2,5.989,288826"
"#$GPRMC,719559.8,V,982.98,S,884.9,W,58.8,6.8,988983"
"#$GPRMC,970899.3,A,999.9,N,858.53,E,,,5722915\v|"
"#$GPRMC,098998.20,A,298.7839,N,10662.817,W,,,286196Z"
"#$GPRMC,892289.9,V,38899.2,N,90423.1,E,,,888748s"
