"$GPRMC,141959.04899,V,18828.92,N,895.9,W,90.85,,869388%_*81"
"$GPRMC,899789.85,V,5998.996,N,84483.7,E,,,374880\w\b*AC"
"$GPRMC,296589.7,A,934.28,S,1196.982,W,,82.849,019148\0*aC"
"$GPRMC,228218.3,A,691859.699,S,086.8,W,39.8,,883758idfE\fvH#t'*a8"
"$GPRMC,561278.9,V,17928.8,N,899.8,W,,19.9,6909481*8f"
"$GPRMC,218288.4,V,9681.79,S,797.4,W,,,797802K*88"
"$GPRMC,599958.888,V,8292.898,N,8417.9,E,,,851928Q+*99"
"$GPRMC,605238.50,V,238325.9,S,3438.2,W,2.29,96.88,605706B*c8"
"$GPRMC,999488.8,A,622.095,S,8310.09,W,2.859,38.9,889993v*A9"
"$GPRMC,898656.627,A,499.2,S,8881.8,E,3.8,7.59,954975>+Hw4*cA"
"$GPRMC,416643.0,V,8149.80,N,989.9,E,81.4,,088839/F*49"
"$GPRMC,816884.7,V,00911.6,N,9986.78569,W,6.98,,599229GR*8a"
"$GPRMC,986897.9,A,899597.8,N,9988.99,E,6.89,,128419J*f3"
"$GPRMC,458932.7812,V,06086.3,S,864.859,W,21.54,9.81,849894\f:*B8"
"$GPRMC,898839.773,V,8798.916,S,77879.9,W,9.3,8.0920,199268uo*93"
"$GPRMC,774340.6,A,898.9,N,9309.9,W,,5.1,878858*ca"
"$GPRMC,868645.868,V,9198.8,S,167.6,W,9.7,425.997,780883[\f*ef"
"$GPRMC,129088.344,A,6825.3,S,49860.998,E,,8.922,609496];e*9e"
"$GPRMC,588588.1,V,05778.9,S,989.989,E,,,884384F*E4"
"$GPRMC,928691.1,A,8635.898,S,9979.972,E,9.96,,818999\f\a*ED"
"$GPRMC,918991.93,V,2585.4,S,680.8,W,,0.9,9290872*83"
"$GPRMC,919839.98,A,875.8,N,37517.4,E,0.084,,979987p*Ba"
"$GPRMC,381910.1,A,28739.86,S,989.8,E,8.94,,415999b*ca"
"$GPRMC,989878.868,V,2893.227,N,498868.93,W,8.93,4.8,940819~kc*80"
"$GPRMC,809996.883285,V,9582.59,S,298.9,E,,,998092f*AB"
"$GPRMC,899194.889599,A,888.83,N,694.1281,E,1.6,2.8,468939*a1"
"$GPRMC,781293.3,V,929.60,N,99185.889,W,84.7,41.99,874983UT*02"
"$GPRMC,012978.7,V,447.8,S,3063.96,W,8.9,29.39892,788975Ii*F8"
"$GPRMC,298988.9,A,537.8,N,889.99958,W,,,890145*74"
"$GPRMC,480908.33,A,238.8,N,6888.16,W,,,989729\@f*df"
"$GPRMC,893540.5,A,98789.8,N,448.92,W,,,794838y*B9"
"$GPRMC,898990.84,A,8992.98822,N,496.9,E,0.03,,889998*89"
"$GPRMC,830991.889,A,9739.89,N,866.99,W,,20.58,789690M*A5"
"$GPRMC,939694.919,V,962318.5,S,8918.18562,E,4.99,,789890*69"
"$GPRMC,597048.999,V,828.8,S,4190.8,E,198.8929,8.5,916048*4E"
"$GPRMC,905875.2,V,801.485,N,309559.988689,W,8.3,,612538#\nUPd*ab"
"$GPRMC,889888.9,A,279.8,S,7957.589,W,346.29,,229608d^*88"
"$GPRMC,983882.8,A,818.2,S,848.88886,W,1992.4,,829439j*af"
"$GPRMC,899298.39,V,494.6,S,684.8,W,,3.839,528371V*A9"
"$GPRMC,888426.6,A,826.90,S,74989.6,E,,7.81,038990r*b9"
"$GPRMC,915892.3,A,98827087.4,N,128.39,E,,9.98,983957*Ce"
"$GPRMC,118917.9,A,9648.484588,S,98948.1,E,5.9,8.8,399299L*89"
"$GPRMC,489499.8,V,999.38,S,191.8,E,370.2,5.8,895254*D9"
"$GPRMC,397983.832,V,848.9,N,1887.8,E,,,679819j*a3"
"$GPRMC,594298.9,V,2819.9946,N,81985.8,E,9.49,19.9,996183\*F5"
"$GPRMC,029996.1143,A,6348.8929430,N,0841.93,W,,5.8,815994)9*8e"
"$GPRMC,893894.8888969895,A,599.7,S,1892.6854,W,868.9,,815983)zsIA*D2"
"$GPRMC,185680.6,V,560.2,N,890.18,W,3936.92,8.84,991284=*9f"
"$GPRMC,495908.4,A,889.98,S,898989887.8,E,8389.8,8.97,990908\t*f8"
"$GPRMC,042859.989584,A,783.88,N,6965.0999,E,9.9,87898.8,127988c*Ed"
"$GPRMC,892848.3,V,899862.9,N,029.9,E,,,399860V@*a7"
"$GPRMC,706779.9,V,8933.97,S,89853.8,W,,8.4,458898Ihk*cA"
"$GPRMC,687923.9,V,208.2,S,1819.9,E,1.84,0.4,986252\0*92"
"$GPRMC,989519.88,A,769.7,S,788.3,W,98.0732,,885395+*ba"
"$GPRMC,891104.3,V,998988.9,N,6899165.60,W,,,608238)|pu*B8"
"$GPRMC,849889.9,V,319.15,S,850.8,W,,,858398k*F4"
"$GPRMC,288194.0,V,54998.8,S,64959.0,W,,4.92,058494Z*8C"
"$GPRMC,982992.977,V,48840919.1,N,993.3,E,,9856.4,100898v*D9"
"$GPRMC,884828.897,A,599281.923,S,296.9,W,,81.8,063898*2d"
"$GPRMC,651949.98,V,783.94,S,9885.82,W,,7.1,149899*1d"
"$GPRMC,020699.282,A,4089.8,N,8008.847,W,,,897599l*78"
"$GPRMC,888598.8,A,999.3,N,9909.70,E,8.9,,893687{*8E"
"$GPRMC,996926.6,A,6822.99,N,999428.89,W,,,789268d*66"
"$GPRMC,102898.8,V,091.1,S,6868899.5,E,,4.6,687021%m*90"
"$GPRMC,912090.6,A,295.9,S,319.0,E,,38.8,188268-*0D"
"$GPRMC,764789.856,V,9554.8,S,5069.6,W,9.59,,907994$*ca"
"$GPRMC,988488.5,A,397888993388.1398,N,690.9935,W,,,893959*F4"
"$GPRMC,582884.8,V,916.661598,S,3295.9,W,5.9988,3483.1889,881798o*f4"
"$GPRMC,596489.1,V,155898.6,S,390.8,W,,794.9,850919u,*43"
"$GPRMC,993296.8,V,893.6,S,991.1,E,9.99,,469958f'8*48"
