"imei:8rmc:$GPRMC,507882h8289882,A,888.3,N,792.8,E,5.852,,618389,"
"imei=2982rmc=$GPRMC,981280:2221879,A,589.95,N,989.5999,W,1.1,23.51,568229,"
"imei:8rmc=$GPRMC,577863\897,A,09932.893,S,992.394,E,2.98,,893998,"
"4imei:8891&rmc:$GPRMC,6783281880,A,982.9,S,882.9699169,W,054.3,,395896,A^D"
"imei=98&rmc:$GPRMC,697893\r387,A,868.46,N,9984.9,W,0.8,,908954,"
"imei=7rmc:$GPRMC,8906959,A,898.953729,S,299.4,W,5.50,7.7,449889,"
"imei=1rmc=$GPRMC,881638\t8,V,23448.8,N,899.88,E,8.7,,811499,"
"\0`mY[imei=8rmc=$GPRMC,361918*8,V,1698.3,S,709288.4,W,95.9,19.816,164752,"
"imei:89&rmc=$GPRMC,383399v942,V,89725.6,N,832.48,E,8.4,,349839,"
"imei=53rmc=$GPRMC,687889$19,V,78589.2980999,S,738.7,W,9.19,,888885,S"
"imei:389rmc:$GPRMC,878898Z4427,A,48835190.28,S,518.7,E,76.71,,283681,{"
"\0imei:9rmc=$GPRMC,899986$81988639898,V,4738.09899796,N,199.31,W,8.5032,,369934,9Q\aV"
"imei=6&rmc:$GPRMC,848968o7,V,929.8,S,87514.69,W,598.6580924,1.9,684358,/"
"imei:4rmc:$GPRMC,028158)4,V,469.368049,N,948.8,E,96.29,8285879.2,958888,su"
"G\bimei=91rmc=$GPRMC,858883.8,V,822.95,S,721.92,W,8.08,,668584,"
"imei=9898rmc:$GPRMC,599751h3,A,937659.9,N,149.4884,W,8.1,,588948,leT"
"imei=62&rmc=$GPRMC,938499&97,V,439.68,S,512499.9,E,6.26,,842898,l"
"imei:89&rmc=$GPRMC,985019933,V,2890.5,N,894.8,E,988.1,1.98729,370017,."
"yimei:8&rmc=$GPRMC,2488776,A,989.00,N,989.8,W,88.8,,180889,"
"imei:9rmc=$GPRMC,990289688,V,867.881,N,906695.688,W,63.3,,866874,"
"imei=8&rmc=$GPRMC,678896q389,V,828.5,N,888481.38927,W,9.6,0.09,538681,"
"imei=88rmc=$GPRMC,690728\08928,A,2922.88,N,089.622,W,899.6,9935.89,889293,"
")imei=4rmc=$GPRMC,89270979,A,989.9,N,678.5,W,8.95,8.9,829158,"
"imei:39&rmc:$GPRMC,895081^32589,A,318.093,S,980995.8997998,W,990.88590,,298807,O"
"zimei=339rmc=$GPRMC,332184x71,V,9298.8,N,917.9,W,33.5,,992889,"
"imei=85rmc=$GPRMC,86358593,V,1889.9,S,789.2,W,327.9,,898983,w"
"imei:8639rmc:$GPRMC,338388/8,V,790.9,S,58389.9,W,31.4486,,559984,R"
"!imei:965rmc:$GPRMC,996957899,V,794.9899490969,N,7784.0,E,287.4425,,895302,"
"jimei=4rmc=$GPRMC,899921Q7,A,7483968895.700,S,948.92,W,2.1,,838284,"
"imei=9rmc:$GPRMC,888018F89,A,138.08,S,989.9,E,549.23,8.9,885888,"
"imei:5&rmc=$GPRMC,027591V989,A,89896.89,S,849.81,W,2.867,,599099,,"
"|Jimei:1&rmc=$GPRMC,089553\f66,A,984.9,S,83685.7,W,929.9,,994790,"
"9imei=1rmc:$GPRMC,988999.38,V,393.9,S,989159.838,W,98.9,91.18,093899,!MG"
"imei=3rmc:$GPRMC,399827T18849,V,991.7,S,426.9,W,9.8,,898798,"
"imei:898&rmc:$GPRMC,4096533,V,998.14,S,78505.9,E,4.96,9.9,406354,"
"\"imei:8034094&rmc=$GPRMC,388593$4,A,58038.29,N,988.8,W,79.2999,88.2441,298798,"
"imei:9&rmc:$GPRMC,578607_1,V,958.0,N,099.9,W,16.9,2.192,095889,\0psyWE"
"Zimei:4&rmc:$GPRMC,499794]0,V,49854789.5,N,9534.99,W,4.8,327.2,399388,"
"imei:8&rmc:$GPRMC,828989258,V,181.9,S,988.4,W,9.298040,3.29,382990,"
"=imei=49&rmc=$GPRMC,984589~5,A,8289.8488,N,790.7,E,8694.8,3.3,882848,"
"imei:8rmc=$GPRMC,925848#87,V,447.3899464,S,095486.6,E,1.3,,788890,"
"imei=8&rmc:$GPRMC,980839z4,A,8499.9,S,8888.75,W,8220.78,,997889,"
"\bimei:97&rmc=$GPRMC,7099988,V,984.80,S,088.9,E,85890.988640,2988.6,003198,"
"imei=95rmc:$GPRMC,90993999,A,8919.7,N,963.4,E,71.98,1998.9,880428,"
"imei=7&rmc=$GPRMC,409848r0,V,773.6,N,089.3022,W,3.2,,889532,"
"imei:8rmc:$GPRMC,376638O9,V,656.3679849,S,998.893,E,9.8,,808947,"
"\"imei:9rmc:$GPRMC,82262257738,V,3248.6,S,39529.6,E,981.8,,784488,"
"Yimei:6rmc:$GPRMC,0729589,A,109.8,N,074.7,E,0.89,,855888,Ks"
"imei=88&rmc:$GPRMC,8328082,A,7799898.9824,S,3895.089,E,9.9,02.09,895888,"
"imei:78889rmc:$GPRMC,996188b0,V,089.8,N,888.9,W,99.8,9.996697,398888,"
"imei=8rmc=$GPRMC,066865$9,V,943.237081,N,952.2,E,989.3,,116988,b"
"fXimei=2rmc=$GPRMC,965800B1,A,9699.4095,N,809.1998,E,857.8,,029487,8"
"imei=4rmc=$GPRMC,728982w9804,V,217.4,N,692.3480,W,69.3808,9.8,989946,v"
">imei=9&rmc=$GPRMC,88989082,A,058.0880,S,8959.8,W,78.89,,091891,sk3"
"imei=5893rmc:$GPRMC,384848E8,A,745.13,S,086.599,W,8.3829,1.9,798888,~"
"0imei=07&rmc=$GPRMC,5282990,V,492243.97,S,06989.98823,E,0.9,2.2,482698,Vd"
"imei=970&rmc=$GPRMC,198958?872,A,958.9,S,809.8588,E,9.292,,199469,j"
"Himei=8198rmc=$GPRMC,408880J0,A,798.90,N,9809.8,E,9.8,,863980,g\0"
"imei=7&rmc:$GPRMC,698928,9,A,696.0899,N,5909.579807,W,7.888,5.2,857028,"
"NAimei=0&rmc=$GPRMC,138921L1,A,291.63639,S,193.881,E,1.3,8.3,916307,\fO"
