"#a$GPRMC,999808.7,V,59887.8,N,97489285.88,E,,29.8,978916j"
"#8b89a$GPRMC,939889.198,A,980.9,N,89988.98,W,9.89,,688988w"
"#$GPRMC,998535.2,V,99822.162,N,899.9,E,,8.89,848982U"
"#$GPRMC,856229.4894,A,591.80,S,1988.8,W,,,8799969"
"#$GPRMC,859921.6,A,783.3,N,961582.8,E,2089.66,1.8219,538955\f_"
"#d78$GPRMC,369824.8,V,9283.8,N,8984187.9,E,,6.09,878340Y"
"#9$GPRMC,528769.982,A,82197.888,S,54965.6,E,89.8,,558819M\em"
"#9a$GPRMC,593095.86,V,992978.80,S,689.3,E,2.32,,790399\rKU"
"#$GPRMC,460519.998,V,518.759,N,388.3,W,9.11694,8.0,868410"
"#ec7af5$GPRMC,768949.9,V,2218.1,S,19028.8,W,999.9,,978981\0bSv"
"#$GPRMC,668810.82885,A,788.484,S,9808.99,E,,1.9868,820886~"
"#0aa$GPRMC,999035.9,A,857.83899,N,312.1,E,48.899,,180388w"
"#$GPRMC,821789.848,V,305.9,S,538.9521,W,4.98894759859,,639898 ;"
"#$GPRMC,929989.1,V,903.2,N,590493.07,W,8.1,89.78,239882."
"#ac$GPRMC,825322.9,V,989.883,S,868.68,E,83.260,47.18,055729|45"
"#a$GPRMC,569583.2,A,189038.2,N,932.8,W,97.1,46886.3,868891\vAe"
"#58$GPRMC,995989.85,V,909386.0,S,118.4,W,,146793.7,898386QO:"
"#56$GPRMC,988948.538,V,58837.8,S,187.994,W,,591538.32,239989/"
"#ff$GPRMC,999399.718,V,998.9,N,709.7,E,,,931978&"
"#a8$GPRMC,998898.27,A,592.248,N,12987.921,W,,3.2,918012"
"#$GPRMC,437488.91,A,79296.6,N,9993.851,E,8879.35,,992988"
"#$GPRMC,874977.69,A,893699.98,S,489.6,E,,,249068tcvc"
"#$GPRMC,992988.9,V,0817.0338,S,3893.0,E,5.388,,033971\r"
"#5$GPRMC,405980.4698,A,098.5,N,826.7,E,,,8989194"
"#$GPRMC,482538.64,A,981.1,S,595.87,W,104.5,,889689$\rb\f"
"#$GPRMC,982498.389,A,0589.9,S,50969.9,W,82.88,8.6,929984@Z"
"#2b$GPRMC,233878.897,V,8388.399,S,965.9,E,9.9,,512098="
"#f2$GPRMC,997100.3,A,091493815.17,N,948882.2,E,1.829,6.14,395395ZU"
"#5cc$GPRMC,483629.9,A,33613.828,N,888.9,W,9594.9,59.88,963889`"
"#f$GPRMC,298998.59,V,5998.3,S,9480.9,E,69.8,5.88,028628O>_"
"#$GPRMC,236814.0,A,3206.9,N,023.1,W,7.108,4.00161,989986E"
"#fa$GPRMC,287181.8,A,589.0,N,293.029,E,9.33,,966887Z"
"#f$GPRMC,509389.3,A,89989.98,N,980.848,E,340.6,,884828w\t"
"#4e$GPRMC,041988.29,V,663.89,S,9898.8,W,,8.88976,7937995"
"#$GPRMC,799984.9998,A,47838.8,S,18379.94,E,62.82,,851374>"
"#$GPRMC,316028.9,A,906.1980,N,899.9,E,58.1,,979899."
"#$GPRMC,595981.9,A,218.8886,N,09149.9,E,,88.7,521592E"
"#2$GPRMC,849798.5,V,9749.1,S,890.8888,E,,,745810oF"
"#$GPRMC,682797.021,A,957.189,S,988928.088,E,,,584858e5"
"#cd$GPRMC,391238.8,A,159981.9,N,8451629012.28,W,,29.9,991697p"
"#$GPRMC,980278.848,V,747.7940,N,383.81,E,826.8,,399278a@"
"#8$GPRMC,870989.6,A,297.96689,S,8298.48,E,4.4,,814221wP"
"#c$GPRMC,886888.80,V,1959.35,N,681.01,E,,,898109lj!"
"#ef$GPRMC,761929.8,V,9971.893836,N,7686.8903,W,4.97,9.9,398696\e"
"#8$GPRMC,988906.3,A,3968.9,S,578692.898,W,,,7337982"
"#$GPRMC,979439.9,A,31694.8,S,0269.186,E,7.7,330998.691,989895k\G"
"#$GPRMC,989518.3,A,988.8,N,1598.8852985,W,,8.3780,699488]"
"#5adf88a$GPRMC,537994.57,A,898.9978399,S,291.79,W,67.988288,77.8,258988"
"#8$GPRMC,889172.6,V,187.51804921928,S,983.5,E,,7.889,039104Z"
"#$GPRMC,989818.9,A,495.199,N,934.986,W,918.2,,997287#"
"#$GPRMC,891966.77,A,8888.48367,S,9682.9,W,,,1391988$"
"#$GPRMC,518903.89,A,928.99,S,8989889.4,E,9.888,,845016x"
"#f$GPRMC,258958.549,V,8499.790,N,878299.9893,W,9.69,,589939ZZ"
"#$GPRMC,948388.0,V,7883.34,N,5979.8139,E,,,885882"
"#$GPRMC,168973.7,A,458981.54,S,908762889.898,E,92.383,,954994\r-"
"#$GPRMC,058351.8,V,98899.8068,N,999.2,E,,037.19,998596#"
"#9$GPRMC,888309.9,V,689908.391,N,14827.5,E,88.9,,997959)"
"#b$GPRMC,044628.2,V,838.29,N,8469.8,E,3.920,,891648`"
"#da$GPRMC,687162.0,A,5786.3,S,697858.5,E,,,084398o"
"#7$GPRMC,834191.22998,V,795.990,S,9899987.97874,W,,,896828+\""
"#af4$GPRMC,217398.2,A,581.9,N,589.6,E,9338399.7,,9689710h"
"#af$GPRMC,582894.89,A,96988.9,N,99882.9,E,0.5,1.16,232698"
"#$GPRMC,652998.01,A,84489.828895,S,896.8,W,9.36,88.9,4981959"
"#$GPRMC,845999.8,V,5717.9,N,796.2,E,91.446,,990850B"
"#d$GPRMC,879988.68986,A,0879.938,S,876983.9268,E,,,959630$"
"#$GPRMC,108978.78,A,987.33,N,9988.0,E,,,797762{"
"#$GPRMC,066059.8,V,9544.919,S,998.2,E,,,896891\"
"#88$GPRMC,888878.9,A,09988.92,S,282.695,W,,,533918*"
"#a$GPRMC,989598.4,A,58172716.95,S,73828.4889,W,1.99,9.862239,978698;"
"#$GPRMC,939969.1,A,888.9,N,078.4,W,92268.58,,286089Qfji|"
"#af$GPRMC,807908.7,A,3288.9999,N,8978.9,E,84.9,,879133\vT4\ffFji|"
"#$GPRMC,480428.40,A,998.86,S,948.8,E,881949099.9,0.09119,895966pOo"
"#$GPRMC,728893.8,A,4778.8,N,185.499,W,84.98,,878389o~$"
"#d8b$GPRMC,938499.1,A,383911.650,S,538.2,E,,00.0,841823DqX"
"#$GPRMC,868827.5,A,8938.8950,S,9454.393,E,2.95,,8817016#"
"#e5e$GPRMC,287691.859976,V,699.924539,N,726846.815,W,,99.9,869846G"
"#8$GPRMC,889999.8,V,121.8,N,888.098,W,,,899687\rgZ"
"#899$GPRMC,588990.5,A,43578.7782115,N,9932.778,E,5.699,7.93,987074"
"#8f98$GPRMC,266860.4,A,81899.4,N,4668.85,E,74.8738,83.9,489498x(W"
"#$GPRMC,844987.952,V,995.64,N,388.99,W,,7.9,499349"
