"$GPRMC,996099.596,V,828.869,S,378.1,E,1.94,,282860o\f*bD"
"$GPRMC,781962.9,V,9188.156,S,680.17,W,9.8,,399628fGH*e9"
"$GPRMC,899402.388,A,897884.7,S,8942242.28,W,6.067,5.1,994790AR*E8"
"$GPRMC,968499.95,V,0686028.73,S,8837.929139,E,9.5,1879.3,487619`cqz*B3"
"$GPRMC,879996.9,A,988.995,N,3689.8,W,3797.9,9.39,698998+\fQ'\tA*8F"
"$GPRMC,786878.9,A,728.78,S,3684.9,W,,,605888Kf*Fb"
"$GPRMC,780139.9991,A,79229.9,S,458.69,W,99.539454849,5.9,890834*dc"
"$GPRMC,924868.9,V,858960899.9,S,3987.7,E,,,858991kG*F8"
"$GPRMC,185694.94,V,195.46,N,882.4,W,4923.939191,9.8,199018a*B5"
"$GPRMC,899732.98,A,937.8,N,9913.788,E,898.7,,999897fT*A8"
"$GPRMC,977522.9,A,641993.8,S,738.9,W,,,9787388s*2d"
"$GPRMC,888359.2,A,6889.70,S,895219.8,W,,,328910*38"
"$GPRMC,439947.5,A,999.9219,N,35386.8,W,8.10,,957199P_!*85"
"$GPRMC,500689.99,V,653.8,S,7388.89,W,,,993999*28"
"$GPRMC,389986.2,V,89797.6,S,888698.109,W,,8.4,988897jc1*d1"
"$GPRMC,318068.8,V,6808.98,S,8859.95,E,99.9,,925208*13"
"$GPRMC,998939.6,A,0889.88,S,8380.97,E,9.69,,899746Q*F7"
"$GPRMC,598298.885199899,V,848.8,S,898.9869,W,9.71238,,984960\r*Df"
"$GPRMC,592908.73,A,880.4,N,898.9938,W,,,817488 *A2"
"$GPRMC,988968.5,A,409.8,S,56989.9,W,86.888,,98818359*86"
"$GPRMC,630838.8,A,9218.98,N,898.8,E,8.058982,99.52,813294F*Df"
"$GPRMC,310689.2,A,181.836,N,9944.28,W,88.81,,299567g*68"
"$GPRMC,948831.9898,V,668.5,N,825.8,W,678.7,998.91,983898*6D"
"$GPRMC,882889.4,V,675.1,S,28853.5,E,,2099892.1,994153@-*9f"
"$GPRMC,827484.8,V,819879.98,N,893.243,E,,55.899982,951198x*14"
"$GPRMC,996889.9,V,998283.9,N,805.02,W,,,824544K*E9"
"$GPRMC,446994.8,A,889.7,N,8950.9,E,,,945899j*DB"
"$GPRMC,132885.9,V,463.02,N,8308790.6,W,8.09,8.50,818418o*84"
"$GPRMC,771859.68,V,249.4,S,899.94,W,3.4912,,098928=*5e"
"$GPRMC,948684.9,A,9859.0,S,359.9183,E,8.59,5.3,880858R*AE"
"$GPRMC,248279.2,V,048.3,N,698.1,W,,5.18,029998`,*C1"
"$GPRMC,699455.7,V,848.94198,S,839.8,E,7.09,899.0,887277/9*9A"
"$GPRMC,399603.222,A,1943.690,S,89999804.9,W,,6.2824,993392KC*A5"
"$GPRMC,888511.0,A,2989.85,N,447.1,W,0821.2,,862989x*fF"
"$GPRMC,969667.9,A,8429.29788685,N,9409.318,W,898.98,,072288B-*c4"
"$GPRMC,897848.199,A,548.9,N,966.9,W,990.2,,159886'no*58"
"$GPRMC,870779.87,V,988.9,S,999829.879,W,9.4989,,997762{*A8"
"$GPRMC,998828.06,V,849.38,S,792.95,E,0.6,,889753b*ED"
"$GPRMC,505999.8,V,8990.9,N,8992.9,W,,1.85,7228271*e7"
"$GPRMC,617190.9,A,840.228,N,7078.99,E,,48.7,388788+\thJ+*85"
"$GPRMC,698629.28,A,049.9,S,109.9,W,,,918281*fC"
"$GPRMC,207998.4894,V,418.9,S,92491.3,E,8.82,,887068za`*Ba"
"$GPRMC,889685.184,A,820.8,S,989.4,W,,,929682{*56"
"$GPRMC,635949.5,A,889.3,N,908.88,E,,54.8,199864*fb"
"$GPRMC,198297.8,V,9805069.42,S,80496.89,W,19.89,885.97,939183\bX*D9"
"$GPRMC,818895.0,A,4710.9,N,319.8,W,,46.1,099898*4D"
"$GPRMC,859998.984,V,885.9,S,887.91,W,88.857898,599065.0,489879.*7d"
"$GPRMC,293890.8,A,491.845798,N,83939.9688988,W,,809.86,688482/*F6"
"$GPRMC,997889.9,V,4799.958405842,N,7659.268,E,,,98869934\e*F9"
"$GPRMC,384908.87,A,089.5687938,N,9388499105.3818,E,3.93,,792737v*a7"
"$GPRMC,275878.9,V,0793.4,S,4794898.7,E,31.888,9.3,589690'*89"
"$GPRMC,192992.86,V,8199.6,S,479.6,E,98.8,,196869{I*BE"
"$GPRMC,629999.99,A,425.9888,N,2819.919,E,499.78,,899097R*93"
"$GPRMC,293939.8,V,9938.8,S,789.1,W,2.680,,969889'*e9"
"$GPRMC,818929.9,V,928.8,S,408.1,W,8.7,8.3,998825h*a9"
"$GPRMC,339989.13,A,4455699.7,S,155.7,W,2.39,,445929I*8a"
"$GPRMC,571540.6,V,315.4,S,848.0,E,,7.12789887,588789eM*9b"
"$GPRMC,084939.08,A,379.74,S,596999.8559,E,096.9,,899196*F4"
"$GPRMC,985299.7,V,299.5854,S,692.6,W,,,123984$*9b"
"$GPRMC,582288.73,A,4063.5,N,9317.42,W,7.636,,812845%z*D1"
"$GPRMC,879961.8,A,068.8,N,898.8,E,5980.8,,998523(L*28"
"$GPRMC,218056.3,V,807.1,N,3892.96,W,29.4,88.4489,049528n*8E"
"$GPRMC,759213.885,V,799.9,N,518.9,E,99.9,,669346*F4"
"$GPRMC,276983.998,V,3003.50,N,983.2,E,,56.8,985929w&[*f5"
"$GPRMC,489796.788,V,93497.39,S,9848.67,W,887.19,,871430z*18"
"$GPRMC,099496.78,A,312937869.6,N,816741.58308,W,9980.7,59.971728,282987Q*2e"
"$GPRMC,128208.63,V,85206.9,S,947.1,E,81.6,,989992K*84"
"$GPRMC,438386.8,V,484.8499,S,0988.48,E,1.88420,,280799*D4"
"$GPRMC,886886.868,A,3993.9,N,358.6,W,9.88,9608.088,988048Q*f9"
"$GPRMC,888688.99,V,019823.9317959,N,608588899492829.1,E,,5888.8,886109\a*D8"
