"#$GPRMC,738985.83,V,3389.3,N,970.2,E,,,849389v "
"#$GPRMC,488289.7,A,857.4,N,1220.44785,W,3.984,,389388T"
"#6$GPRMC,996398.8,V,3189.8,N,93415.25,W,89.8,90.38,849149\v"
"#$GPRMC,049991.89,V,632.86,N,2298.895,W,,,074498gu"
"#98b$GPRMC,985497.2,A,0308.08,S,992.2,W,86829.4,978.888,887289"
"#$GPRMC,628998.3,V,89818.4,S,999.8,E,3.0,21.9,498385w"
"#889$GPRMC,541878.942,V,989.944,S,864.059,E,75.5802,,799028+2G"
"#b$GPRMC,198948.16,V,1368.91,S,227.3,W,431.0,,388797*"
"#$GPRMC,179285.99,A,99928917.9,N,803.3,W,4.855,8.51,1197574"
"#$GPRMC,830925.2,V,829.13809,S,554.2,E,34988.99,,941209`m{f^"
"#b9df$GPRMC,892998.7,V,217.9,S,790.9,W,4890.9,283698.9,7581922"
"#f$GPRMC,094989.9,A,9037.9,S,7910.0,W,62.2,1.4937,801691z/"
"#c$GPRMC,256889.8193,A,398.69,N,95888677.7,W,,,908943(jP"
"#9$GPRMC,897907.8,A,1689.7,S,95992.2384,E,,9999.239,288388@\0"
"#4$GPRMC,169041.3,V,8698.9,N,905.9,E,9.0,996.9,890950jA"
"#deb$GPRMC,078892.8,V,589.8,N,6828.4,W,,8.38,595841D"
"#b6aa$GPRMC,786858.83,A,9289.88,S,777910.980939,W,,4998.159,468955p*"
"#b$GPRMC,398896.77,A,844.99,S,9199.80,W,,925.92,945642;"
"#$GPRMC,420079.982974054,A,9822.7,S,889.688,E,5928.999,,949914>>4"
"#$GPRMC,889800.38,A,873.6,N,1994.89,W,17.89789479,7.3,985895OI"
"#ea$GPRMC,876592.56,V,898.8,N,6748.2,E,,,8384321"
"#9d29$GPRMC,228999.98,V,257634.9,S,8848.61,E,0523.6,,908989\a8h"
"#$GPRMC,988889.98,A,428.1,S,994.889,W,,58.8,481998>yg"
"#$GPRMC,858598.8,V,900883.2,S,0028.9,E,,,815391"
"#$GPRMC,509780.9878,V,049.7954,N,8790.964,E,8899.4126,,183265_fEO"
"#e9$GPRMC,859958.287,A,9998.99,S,828.899,E,59.56,,298894<S#"
"#$GPRMC,899399.9,V,4104.6,S,349.896,W,69.9,495.6,982882}"
"#$GPRMC,833789.81,A,162760.399,N,091.5897,W,92.28,96.1,949181T0t>UH*WX"
"#8$GPRMC,190899.93,V,0099.9,N,1507.0,W,,,992493*"
"#e$GPRMC,839868.9,V,698.8,N,94216559.8,W,,,8822875"
"#e$GPRMC,909934.98998,V,484.92129,N,095.9,E,4.98,8.8,926991&U\b"
"#f$GPRMC,888079.3,V,028.7099,N,395.8,E,4.930,,989798<D"
"#$GPRMC,998994.328,V,5985.89,S,8688.8086,E,,18.5,858879\e_"
"#a$GPRMC,792798.9,V,376.8,N,838.8,W,6.8,,8990385"
"#$GPRMC,924680.9,V,8989.95,N,7340803.0,W,,34.691285,908947$J"
"#$GPRMC,898885.90,V,749.0,S,10742.0959,W,,12.868,788816zFG"
"#f8$GPRMC,818597.897,A,6910.92,S,9324.97,W,,,098898F]7OM)"
"#$GPRMC,157828.1,A,1889.90,N,8969.7,W,1.998,,548508"
"#8$GPRMC,862039.9,V,682.8184,S,988.8888,E,,,727199 \tg"
"#$GPRMC,736999.8,A,208.89,N,8298.8049,W,,,899259N"
"#e$GPRMC,237590.82,V,0649181.599,N,532.9,E,84.3,,096919\"L"
"#$GPRMC,472679.78,V,4809.2,S,909.79,W,,9.8,802256Y"
"#f$GPRMC,979488.1199,V,89858.9,S,9018.98,W,,,9594987\a"
"#$GPRMC,890202.18,A,8079.82,S,4998.4,W,4.7,08.5888,199184="
"#$GPRMC,862095.9,V,809882.7,N,007.7952,W,,78.8,390183["
"#2$GPRMC,986845.9,A,999.9,N,84964.6,E,39.748,,835084\r2@"
"#$GPRMC,912992.9,V,3950.28,N,128.4,E,,,274696}\vR"
"#8fd$GPRMC,929821.98,V,8598.5213,N,88999.9,E,,,807848\f"
"#a$GPRMC,989986.8,V,548.8,N,989.34,W,1.9,94.75,599969 "
"#$GPRMC,988489.8,V,998.9,N,2084.9296,E,450.96,18063.99,993599p>"
"#3$GPRMC,588785.8,V,894.52349,N,4980.93,E,,,889068;X["
"#f94f2$GPRMC,382148.8,V,8848.5,N,688.859,E,888.819,3.73,988289wN"
"#$GPRMC,997588.6,A,835.5,N,898.899,W,22.9,889.99,575100\"a"
"#a0$GPRMC,893919.8,A,950189.59,N,598.3884,E,,6.9,946918"
"#$GPRMC,898420.98,A,9058828.8,S,388.8,W,7.57,99.88821,589999?K"
"#$GPRMC,699985.9,V,8807.3,S,797.8,W,,,818036}"
"#8f$GPRMC,288459.7,A,982973.98,S,983.3,W,98.38,12.7,388458x"
"#8$GPRMC,090799.946879,A,9884.9,N,914.633,E,6.59,,995808q"
"#9$GPRMC,990926.9798684,A,180.888958,S,9990.9,E,3.03,9.72,499088c0]}O"
"#a$GPRMC,914999.8,A,9463.8889,S,2099.888,W,99755.7,,998160}"
"#$GPRMC,391994.187,V,31833.9,N,88829.8,W,89.847830,6.025821,196812\b"
"#b$GPRMC,584397.7,V,88988.1,S,1923.1,E,,,388296r"
"#$GPRMC,932378.0,A,719.21,S,897.5,E,9.939,,900343{"
"#$GPRMC,288966.5,V,188.58,S,9809.800,E,89.709,,938599"
"#$GPRMC,995376.29,A,45040.28,S,838668391.25584,E,,,9576854<o"
"#f$GPRMC,918991.6,V,297.6,S,388.8,W,,698.9,317195"
"#$GPRMC,187840.892,A,939.849,S,719.0393,E,,95.199,699188pN"
"#18d$GPRMC,991897.7,A,680158.0,S,8888.8,E,,,782932l+!:"
"#$GPRMC,710298.886,A,9769.83,N,249.0,W,9.9,,899968&"
"#b$GPRMC,528989.87,A,400.99,S,481.3,W,,85.9,848694p"
"#$GPRMC,922898.7,A,187.5,S,065.5,W,9.5,9986819.79,863848b"
"#$GPRMC,848115.5,A,67889.88,N,6899.06,W,,80.9988,667788*"
"#59d7$GPRMC,397373.3,V,382.20,S,999.2,E,6978.88,4.4,551276VD"
"#86$GPRMC,567638.64,V,972.3,N,863.15,W,,92.9,208709"
"#$GPRMC,291882.19697,A,7897.8,S,932.50,W,,88.8,988858)L"
"#bcf$GPRMC,198292.9,V,29184.8,S,0983.82,W,,83.8,923999v"
"#1e4c1dd$GPRMC,528887.7,V,888220.7,S,8858169.8,W,,095.9,654774i}\fi"
"#a8$GPRMC,952875.688,A,428.85,N,88899889.889,W,,4.84,489874("
"#2$GPRMC,898388.66,A,2398.14,S,845.858,W,3.9355,,192129"
"#f76$GPRMC,798684.58869,A,8699.79910,S,759.89922439,W,18490.585,9.8,736888^\""
